SKN,Name,Lat_DD,Lon_DD,ElevFT,Observer,UsedInRFA,NumMosRFAvg,DataSources,StationStatus,NumMos,MinYear,MaxYear,Changepoint
1.00,Kalae,18.91617582,-155.6749942,35,USCG,Yes,8,"NCDC, State/NCDC",Discontinued,285,1924,1949,no
1.10,Morse Field,18.91367961,-155.6805497,40,US AIR FORCE,No,0,State,Discontinued,33,1939,1941,no
1.20,Kalae S Trk Sta,18.93866881,-155.6805489,305,SPACE TECH LAB,No,0,State,Discontinued,57,1965,1969,no
2.00,Manuka,19.10866032,-155.8255447,1750,STATE DIV OF FTRY,Yes,12,"NCDC, State, State/NCDC",Current,886,1929,2007,yes
2.11,Bottom 1916 Flow,19.22310147,-155.7952647,2770,HOLUALOA RANCH,No,0,State,Discontinued,16,1956,1957,no
2.12,Top Terr Boy,19.18588011,-155.8222097,3430,HOLUALOA RANCH,No,0,State,Discontinued,16,1956,1957,no
2.13,100 Acres,19.1961578,-155.8035984,4200,PUUWAAWAA RANCH,No,0,State,Discontinued,274,1956,1979,no
2.14,Kapua Mauka,19.18532491,-155.7888767,4620,HOLUALOA RANCH,No,0,State,Discontinued,18,1956,1957,no
2.15,Pa Hanalei Pen,19.2036575,-155.813876,4000,HOLUALOA RANCH,No,0,State,Discontinued,54,1956,1979,no
2.16,Castle Padd Tank,19.21365726,-155.7888761,5050,HOLUALOA RANCH,No,0,State,Discontinued,16,1956,1957,no
2.17,Okoe,19.16699076,-155.8652659,1590,PUUWAAWAA RANCH,No,0,State,Discontinued,274,1956,1979,no
2.18,Kole Pen,19.13865819,-155.875544,920,PUUWAAWAA RANCH,No,0,State,Discontinued,273,1956,1978,no
2.19,HALEPIULA (1670),19.14032538,-155.8472109,1670,PUUWAAWAA RANCH,No,0,State,Discontinued,127,1956,1966,no
2.20,Kahuku Shed 3,19.16474,-155.68228,4890,KAHUKU RANCH,Yes,4,State,Discontinued,630,1920,1974,no
2.21,PAPA,19.20199047,-155.8352649,2600,PUUWAAWAA RANCH,No,0,State,Discontinued,161,1959,1972,no
2.22,Furlka,19.18199125,-155.8255431,3200,PUUWAAWAA RANCH,No,0,State,Discontinued,239,1958,1979,no
2.23,Bill Jack,19.18199061,-155.8505432,2060,HOLUALOA RANCH,No,0,State,Discontinued,6,1957,1957,no
2.24,Kau,19.10866081,-155.7958228,2360,WINFORD GARDENS,No,0,State,Discontinued,17,1966,1968,no
2.25,Reservoir (2940),19.16060318,-155.8224882,2940,PUUWAAWAA RANCH,Yes,12,State,Discontinued,149,1966,1978,no
2.26,Castle,19.22532337,-155.7788762,5680,PUUWAAWAA RANCH,Yes,11,State,Discontinued,135,1967,1979,no
2.30,Hoopuloa Upper,19.21032328,-155.8522094,2425,DOMKOWICZ RYS,No,0,State,Discontinued,107,1903,1912,no
2.31,South Kona,19.09699465,-155.7497122,2650,MRS C CARLSON,No,0,State,Discontinued,119,1977,1986,no
2.32,South Kona 2 2.32,19.105,-155.78,2564,South Kona,No,0,State,Discontinued,92,1982,1991,no
2.34,Milolii 2.34,19.186302,-155.886763,920,NCDC,Yes,11,NCDC,Current,267,1985,2007,no
2.40,Hoopuloa Lower,19.19698981,-155.8688765,1650,EDWARDS EH,No,0,State,Discontinued,101,1897,1905,no
2.50,KAPUA,19.20560162,-155.7588771,6000,KAHUKU RANCH,No,0,State,Discontinued,224,1953,1973,no
2.60,FIVE MI PADDOCK,19.07699483,-155.7572126,2000,KAHUKU RANCH,No,0,State,Discontinued,85,1954,1961,no
2.70,Kahuku Plant,19.23587837,-155.8585982,2400,ARNEMANN WHG,No,0,State,Discontinued,16,1909,1910,no
2.80,Top Coffee Papa,19.19532346,-155.855543,2050,HOLUALOA RANCH,No,0,State,Discontinued,16,1956,1957,no
2.90,Kapulepu,19.18199051,-155.8555432,1900,HOLUALOA RANCH,No,0,State,Discontinued,10,1956,1956,no
3.00,South Pt Corral,18.94700043,-155.6799932,400,PARKER RANCH,No,0,"NCDC, State, State/NCDC",Discontinued,413,1948,1982,no
3.10,Kahuku 2 Makai,19.13838146,-155.6986016,4300,KAHUKU RANCH,No,0,State,Discontinued,307,1949,1974,no
3.11,Mauka Reservoir 3.11,19.159,-155.674,4990,NCDC,No,0,NCDC,Current,175,1983,2007,no
3.20,Kahuku Shed I,19.11421567,-155.6972128,3500,KAHUKU RANCH,Yes,12,State,Discontinued,701,1914,1974,no
3.30,Kealakoa,19.11504791,-155.6330485,3100,KAHUKU RANCH,No,0,State,Discontinued,238,1954,1974,no
3.40,Kahiawai,19.12754937,-155.7577673,3700,SMITH RUSSELL,Yes,12,State,Discontinued,109,1965,1977,no
3.50,Glover,19.12782672,-155.7180456,3960,KAHUKU RANCH,No,0,State,Discontinued,148,1962,1974,no
3.60,Manuwai Nui,19.12310389,-155.6766578,3760,KAHUKU RANCH,No,0,State,Discontinued,130,1963,1974,no
3.80,Kahiawai Mauka,19.13227142,-155.759156,4120,SMITH R,No,0,State,Discontinued,10,1976,1978,no
4.00,Kamaoa,19.0042156,-155.6638817,1070,KAWAIHAE RANCH,No,0,State,Discontinued,96,1945,1952,no
4.10,Kahuku Rch Hse,19.05532714,-155.6922135,2000,KAHUKU RANCH,Yes,12,State,Discontinued,703,1914,1974,no
4.11,Kamaoa,19.04143649,-155.6277712,1074,KAWAIHAE RANCH,No,0,State,Discontinued,14,1970,1971,no
4.20,Keaa Homesteads,19.04365913,-155.6588813,1680,BARTELS MRS F,No,0,State,Discontinued,64,1901,1906,no
4.30,Kaalualu Bay,18.97033138,-155.6138838,20,HUTCHINSON SUGAR,No,0,State,Discontinued,67,1956,1961,no
4.40,KAMAOA 100,18.99699348,-155.6605485,1000,KAHUKU RANCH,No,0,State,Discontinued,244,1954,1974,no
4.60,George Peck,18.99893763,-155.657493,1022,KAHUKU RANCH,No,0,State,Discontinued,145,1962,1974,no
4.90,Kaalualu,18.93777778,-155.6458333,15,HAWN RANCH,No,0,State,Discontinued,153,1962,1974,no
5.00,Kamaoa-P Ranch,19.02532608,-155.6672146,1375,PARKER RANCH,No,0,"NCDC, State, State/NCDC",Discontinued,527,1939,1983,no
5.10,Kamaoa Puueo 5.1,19.008,-155.643,1040,NCDC,Yes,12,NCDC,Current,291,1983,2007,no
6.00,Kiolakaa A&F,19.07032619,-155.6355484,1925,STATE DIV FTRY,Yes,11,"NCDC, State, State/NCDC",Discontinued,753,1929,1998,no
6.10,Kau-Hayselden,19.07532634,-155.6222157,1850,HAYSELDEN WH,No,0,State,Discontinued,114,1904,1913,no
7.00,Kiolakaa-Hayseld,19.05032561,-155.6222157,1050,HAYSELDEN WH,Yes,12,"NCDC, State, State/NCDC",Discontinued,472,1914,1953,no
7.10,Field 140,19.07032708,-155.5972166,1450,HUTCHINSON SUGAR,No,0,State,Discontinued,101,1964,1972,no
9.00,Punaluu Kahawai,19.24698362,-155.6055497,6200,STATE DIV FTRY,No,0,State,Discontinued,177,1928,1966,no
9.10,Mauna Loa,19.24365061,-155.6105496,6200,KAHUKU RANCH,No,0,State,Discontinued,52,1959,1966,no
10.00,MOUNTAIN HOUSE,19.14310163,-155.6111051,3065,HUTCHINSON SUGAR,No,0,State,Discontinued,583,1920,1973,no
10.10,New Mt House Rd,19.12199154,-155.593328,1920,HUTCHINSON SUGAR,No,0,State,Discontinued,102,1964,1972,no
11.00,MAKINO,19.09032645,-155.5988834,120,HUTCHINSON SUGAR,No,0,State,Discontinued,567,1939,1986,no
11.20,Haao Springs,19.08782636,-155.619438,2700,HUTCHINSON SUGAR,No,0,State,Discontinued,101,1964,1972,no
11.30,Field 450,19.10699234,-155.5930502,2200,HUTCHINSON SUGAR,No,0,State,Discontinued,101,1964,1972,no
11.40,Field 350,19.08449338,-155.5916613,1920,HUTCHINSON SUGAR,No,0,State,Discontinued,101,1964,1972,no
12.00,Kaala Iki,19.12532461,-155.5622178,1340,KAU SUGAR,Yes,11,"NCDC, State, State/NCDC",Discontinued,567,1939,1986,no
12.10,Hilea,19.13365789,-155.5355517,330,HUTCHINSON SUGAR,Yes,11,State/NCDC,Discontinued,583,1885,1938,no
12.11,Field 765,19.16782193,-155.5472179,1700,HUTCHINSON SUGAR,No,0,State,Discontinued,100,1964,1972,no
12.12,Field 715,19.16337795,-155.5336071,1150,HUTCHINSON SUGAR,Yes,12,State,Discontinued,233,1955,1974,no
12.13,Hilea Gulch Trib,19.17421032,-155.597217,3040,USGS,Yes,11,State,Discontinued,249,1967,1991,no
12.14,FIELD 700,19.15032348,-155.5191631,650,HUTCHINSON SUGAR,No,0,State,Discontinued,13,1971,1972,no
12.15,Sea Mountain,19.13310292,-155.5152744,70,SEA MOUNTAIN,Yes,10,"NCDC, State/NCDC",Current,299,1982,2007,no
12.70,Field 656,19.14976747,-155.5791617,1750,HUTCHINSON SUGAR,No,0,State,Discontinued,120,1964,1973,no
12.80,Field 750,19.17976517,-155.5722178,2120,HUTCHINSON SUGAR,No,0,State,Discontinued,101,1964,1972,no
12.90,Field 850,19.17893212,-155.5527735,1952,HUTCHINSON SUGAR,No,0,State,Discontinued,180,1962,1976,no
13.00,Waiubata,19.09643735,-155.5672178,1375,HUTCHINSON SUGAR,Yes,12,State,Discontinued,565,1939,1986,no
13.20,Field 435,19.10532565,-155.5772175,1800,HUTCHINSON SUGAR,Yes,12,State,Discontinued,209,1955,1972,no
13.30,Field 51,19.12032479,-155.5738842,1740,HUTCHINSON SUGAR,No,0,State,Discontinued,84,1964,1970,no
13.70,Naalehu Airstrip,19.07532737,-155.5758284,1180,HUTCHINSON SUGAR,No,0,State,Discontinued,98,1964,1972,no
13.80,Kaala Iki Astrip,19.13004644,-155.5738842,1750,HUTCHINSON SUGAR,No,0,State,Discontinued,267,1964,1986,no
14.00,Naalehu,19.06032754,-155.5855501,675,KAU SUGAR,Yes,12,"NCDC, State/NCDC",Current,1394,1890,2007,no
14.10,Honuapo  25,19.08032814,-155.5541624,1895,HUTCHINSON SUGAR,No,0,State,Discontinued,147,1895,1907,no
14.20,Naalehu Hewitt,19.06366105,-155.5805503,1250,GC HEWITT,No,0,State,Discontinued,47,1896,1900,no
14.30,Naalehu (1725),19.08032681,-155.5972167,1725,HEWITT GC,No,0,State,Discontinued,30,1898,1900,no
15.00,Honuapo,19.0917161,-155.5488851,20,HUTCHINSON SUGAR,Yes,12,State,Discontinued,409,1939,1973,no
16.00,Moaula Tunnel,19.21837381,-155.5438844,3000,HAWN AG,No,0,State,Discontinued,238,1923,1954,no
16.10,Field 009,19.19698641,-155.5472179,2325,HAWN AG,No,0,State,Discontinued,55,1967,1971,no
17.00,Moaula Res,19.19837542,-155.5272179,1950,HAWN AG,Yes,6,State,Discontinued,901,1911,1986,no
17.10,Moaula-Willis,19.19698684,-155.5138847,1700,WILLIS TC,No,0,State,Discontinued,58,1898,1902,no
17.20,Higashi Camp,19.19865342,-155.5111068,1610,HAWN AG,Yes,12,State,Discontinued,105,1949,1957,no
18.00,Moaula,19.18032172,-155.4922181,600,Kapapala RANCH,Yes,12,"NCDC, State/NCDC",Discontinued,750,1920,1983,no
20.00,Alili Tunnel 2,19.22531792,-155.5172177,2800,HAWN AG,Yes,9,State,Discontinued,151,1942,1954,no
20.10,ALILI TUNNEL 1,19.23726142,-155.5255509,3500,HAWN AG,No,0,State,Discontinued,396,1943,1975,no
20.20,Alili,19.22004051,-155.5211066,2800,HAWN AG,Yes,12,State,Discontinued,283,1954,1986,no
20.40,Field 100,19.2303176,-155.5091621,2675,HAWN AG,No,0,State,Discontinued,124,1969,1983,no
20.50,Field 303,19.24559424,-155.4983287,2840,KAU PLANTATION,No,0,State,Discontinued,86,1979,1986,no
21.00,Pahala*,19.19,-155.47,875,KAU SUGAR,Yes,6,"Hydronet, NCDC, State, State/NCDC",Current,1352,1892,2008,no
21.30,Pahala Mauka 21.3,19.204,-155.48,1090,NCDC,Yes,12,NCDC,Current,262,1985,2007,no
22.00,Keaiwa,19.23365092,-155.4769399,1650,HAWN AG,Yes,12,State,Discontinued,396,1920,1952,no
22.10,Keaiwa Camp,19.2336509,-155.4788844,1700,KAU SUGAR,Yes,12,State,Discontinued,399,1953,1986,no
23.00,Kahuku,19.23222222,-155.78,5894,RAWS,No,0,RAWS,Current,43,2006,2009,no
24.00,Ohia Lodge,19.2636556,-155.8741544,1320,REDFEARN MRS A,No,0,State,Discontinued,22,1948,1950,no
24.10,Opihihale 2,19.27032215,-155.8738768,1300,TRUMAN LORNA,Yes,12,"NCDC, State, State/NCDC",Current,634,1955,2007,no
24.20,Kaohe-Brown,19.31198823,-155.8772104,950,BROWN DM,No,0,State,Discontinued,24,1980,1981,no
25.00,Pahoehoe,19.34393212,-155.8749878,1000,LINCOLN LP,No,0,State,Discontinued,207,1930,1947,no
25.10,Kalahiki (750),19.40948383,-155.8894343,750,MCDOUGALL GW,No,0,State,Discontinued,144,1895,1907,no
25.20,Kalahiki (1500),19.38031887,-155.8638781,1500,MCDOUGALL GW,No,0,State,Discontinued,41,1904,1907,no
25.30,Hookena,19.38031884,-155.8805447,850,ENDO CAROLYN,No,0,State,Discontinued,41,1926,1929,no
25.40,Kalahiki (1800),19.41198392,-155.8722121,1800,MCDOUGALL GW,No,0,State,Discontinued,36,1901,1903,no
25.50,Mccandless Off,19.37698576,-155.8772112,860,MCCANDLESS RANCH,No,0,State,Discontinued,39,1956,1959,no
25.60,Kahauko Pen,19.37698549,-155.8938779,230,MCCANDLESS RANCH,No,0,State,Discontinued,25,1957,1959,no
25.70,Pahoehoe Ranch,19.33864,-155.87191,1100,MAGOON ESTATE,Yes,12,State,Discontinued,281,1953,1977,no
26.00,Takashiba,19.49031296,-155.895546,2100,KONA EXP STATION,Yes,12,State,Discontinued,500,1937,1979,no
26.10,TANK FIELD,19.49531248,-155.8855462,2600,KEALAKEKUA RANCH,No,0,State,Discontinued,232,1953,1973,no
26.20,Kealakekua,19.48975723,-155.9122125,1450,GREENWELL ESTATE,Yes,12,"NCDC, State, State/NCDC",Current,830,1901,2007,no
26.30,Waipunaula,19.49420151,-155.8930461,2320,BRENNER GEO,No,0,State,Discontinued,334,1969,2002,no
27.00,Honaunau,19.4403158,-155.8788789,1090,TANAKA S,Yes,12,"NCDC, State, State/NCDC",Current,784,1938,2007,no
27.10,Uyeda-Honaunau,19.43198288,-155.8872122,690,BISHOP ESTATE,No,0,State,Discontinued,25,1956,1962,no
27.20,Honaunau Forst 1,19.4119837,-155.8572121,2240,BISHOP ESTATE,No,0,State,Discontinued,53,1954,1962,no
27.30,Honaunau Forst 2,19.41698295,-155.8372123,3450,BISHOP ESTATE,No,0,State,Discontinued,8,1957,1962,no
27.40,City Of Refuge,19.41809471,-155.9094344,15,HAW NATL HSTL PA,Yes,12,"NCDC, State, State/NCDC",Current,456,1965,2007,no
27.50,Honaunau-Steffen,19.41753913,-155.8813788,980,STEFFEN GE,No,0,State,Discontinued,84,1977,1983,no
27.60,Honaunau No. 2*,19.47,-155.89,1306,Hydronet,No,0,Hydronet,Current,193,1992,2008,no
28.00,Napoopoo,19.46864784,-155.9055458,400,KONA EXP STATION,Yes,11,"NCDC, State, State/NCDC",Current,1084,1905,2007,no
28.10,Napoopoo 16,19.47336949,-155.9188791,15,AMERICAN FACTORS,Yes,9,State,Discontinued,448,1901,1938,no
28.20,Keei Middle Rd,19.46198161,-155.8972124,680,GLASS EE,Yes,11,State,Discontinued,275,1955,1981,no
28.30,Kahauloa 2,19.46364797,-155.8788792,1520,BISHOP ESTATE,No,0,State,Discontinued,24,1956,1957,no
28.40,Keei Makai 2,19.44531561,-155.8916567,5801,BISHOP ESTATE,No,0,State,Discontinued,43,1954,1962,no
28.60,Napoopookai,19.46836978,-155.9211013,10,COULTER BRUCE,No,0,State,Discontinued,51,1971,1975,no
28.70,Kealakekua #2,19.49697886,-155.9138792,1450,MEIER MRS LILAH,No,0,State,Discontinued,9,1976,1977,no
28.90,Honaunau,19.44975979,-155.8805456,1146,MCLEAN-HUMPHREY,No,0,State,Discontinued,7,1982,1982,no
29.00,Kaawaloa,19.4919792,-155.9172124,1340,CAPT COOK INVEST,Yes,8,"NCDC, State, State/NCDC",Discontinued,899,1919,1999,no
29.10,Kealakekua-Davis,19.50697819,-155.9172125,1580,DAVIS REV SH,No,0,State,Discontinued,294,1891,1915,no
29.12,Kealakekua T.f.*,19.52,-155.92,1765,Hydronet,No,0,Hydronet,Current,215,1991,2008,no
29.20,Kalukalu,19.50864472,-155.9205458,1500,GREENWELL EC,Yes,12,State,Discontinued,120,1920,1929,no
29.30,Konawaena,19.50864475,-155.9172126,1580,BUTTLES W,No,0,State,Discontinued,98,1956,1964,no
29.40,Konawaena School,19.50864479,-155.9138793,1670,KONAWAENA SCH AG,No,0,State,Discontinued,81,1957,1964,no
29.50,Kanakamelai,19.53364313,-155.8805471,3120,WH GREENWELL ESTATE,Yes,12,State,Discontinued,351,1956,1986,no
29.60,Onouli,19.50031189,-155.9208235,1350,MITCHELL DR J,No,0,State,Discontinued,56,1959,1986,no
29.80,Onouli (1600),19.50197854,-155.9138792,1600,GREENWELL ESTATE,Yes,12,State,Discontinued,284,1960,1983,no
29.90,Malukalu,19.5142001,-155.8949909,2560,GREENWELL ESTATE,No,0,State,Discontinued,283,1962,1986,no
30.00,Komakawai,19.39864788,-155.7716573,6150,MCCANDLESS RANCH,Yes,12,State,Discontinued,131,1944,1961,no
30.10,Big Hill,19.40031632,-155.8122122,4640,MCCANDLESS RANCH,No,0,State,Discontinued,45,1957,1961,no
30.20,Palipakika,19.38031865,-155.8472114,3100,MCCANDLESS RANCH,No,0,State,Discontinued,29,1958,1961,no
30.30,Kiilae Stream,19.41142799,-155.846101,2898,USGS,Yes,12,State,Discontinued,226,1960,1982,no
31.00,Haupuu,19.43142557,-155.8119351,4500,MCCANDLESS RANCH,Yes,12,State,Discontinued,82,1944,1952,no
34.00,Kapapala Rch*,19.28,-155.45,2095,Hydronet,No,0,Hydronet,Current,124,1998,2008,no
35.00,Wood Valley Tunn,19.27031477,-155.4955512,3400,HAWN AG,No,0,State,Discontinued,188,1923,1954,no
35.10,KEAIWA RES,19.24864956,-155.5005509,3060,HAWN AG,No,0,State,Discontinued,294,1954,1979,no
35.20,Wood Valley Camp,19.26864852,-155.4705514,2150,HAWN AG,No,0,State,Discontinued,139,1949,1981,no
35.30,Wood Valley 2000,19.2469831,-155.480551,2000,HAWN AG,No,0,State,Discontinued,99,1911,1919,no
35.40,Wood Valley Res,19.27198146,-155.4855513,2470,HAWN AG,No,0,State,Discontinued,5,1948,1949,no
35.60,Wood Valley,19.27031505,-155.4741625,2200,HAWN AG,Yes,12,State,Discontinued,305,1955,1986,no
36.00,Kapapala,19.27698138,-155.4505518,2140,Kapapala RANCH,Yes,12,"NCDC, State, State/NCDC",Current,1454,1886,2007,no
36.10,Field 481,19.3003131,-155.4688851,3250,HAWN AG,Yes,12,State,Discontinued,72,1955,1960,no
36.20,Field 480,19.29697994,-155.463885,3075,HAWN AG,No,0,State,Discontinued,36,1973,1975,no
37.00,Pakao,19.36864279,-155.4638871,5155,Kapapala RANCH,Yes,7,"NCDC, State/NCDC",Discontinued,583,1928,1977,no
37.10,Mauna Anu,19.34697668,-155.5138856,6600,KAPAPALA RANCH,Yes,4,State,Discontinued,67,1922,1928,no
38.00,AINAPO,19.35697814,-155.4222206,3675,HAWN RANCH,No,0,State,Discontinued,628,1925,1977,no
38.10,MAUNALOA 6700,19.47585994,-155.3805564,6700,HAW VOLCANO OBS,No,0,State,Discontinued,380,1951,1983,no
38.20,HALINA PALI,19.29698497,-155.3080502,2358,HAW VOLCANO OBS,No,0,State,Discontinued,79,1958,1965,no
38.30,HALAPA,19.27031925,-155.2563846,10,HAW VOLCANO OBS,No,0,State,Discontinued,23,1958,1964,no
38.40,DESERT,19.32198099,-155.3941638,2520,HAW VOLCANO OBS,No,0,State,Discontinued,89,1958,1965,no
38.50,Kalapana 2,19.28392871,-155.1166644,60,HAW VOL NAT PARK,Yes,12,State,Discontinued,213,1966,1983,no
38.60,Naulu Forest,19.31531454,-155.1322199,1400,HAW VOL NAT PARK,No,0,State,Discontinued,65,1965,1970,no
38.70,Kipuka Nene,19.32642878,-155.2780526,2926.6128,HAW VOL NATL PARK,Yes,3,State,Current,433,1972,2008,no
39.00,Mauna Lo Slo Obs,19.53529983,-155.5755538,11145,NWS,Yes,12,"NCDC, State/NCDC",Current,615,1955,2007,no
39.10,Mauna Loa Upper,19.53863295,-155.5722206,10960,NWS,No,0,State,Discontinued,251,1955,1975,no
43.10,MAUNAIU,19.42864106,-155.3638894,4500,HAWN RANCH,No,0,State,Discontinued,608,1925,1976,no
43.20,Pahua Mimi,19.41530774,-155.4155555,5140,KAPAPALA RANCH,Yes,11,"NCDC, State, State/NCDC",Discontinued,265,1922,1944,no
44.00,Ohaikea,19.404617,-155.342992,3480,HAWN RANCH,Yes,12,State,Discontinued,626,1925,1977,no
44.10,Ohaikea (3750),19.42197578,-155.3272225,3750,USDA FRUIT FLY L,No,0,State,Discontinued,12,1951,1951,no
44.20,VOLCANO 4,19.41753219,-155.3102779,3760,MAUNA LOA OBSV,No,0,State,Discontinued,10,1978,1979,no
44.30,VOLCANO 5,19.40753327,-155.3272214,3570,MAUNA LOA OBSV,No,0,State,Discontinued,10,1978,1979,no
45.00,Kekekaniho,19.45363981,-155.3305566,4700,KAPAPALA RANCH,No,0,State,Discontinued,91,1937,1949,no
45.10,MAUNA LOA (5500),19.47197146,-155.3655566,5550,HAW VOLCANO OBS,No,0,State,Current,671,1952,2008,no
45.20,Mauna Loa Truck,19.46697199,-155.3475012,5100,USDA FRUIT FLY L,No,0,State,Discontinued,3,1952,1952,no
45.30,MAUNALOA TRK TRL,19.4786375,-155.3858342,5300,USDA FRUIT FLY L,No,0,State,Current,293,1984,2008,no
45.40,Maunaloa T 5300,19.46947176,-155.3541678,6600,UH BOTANY DEPT,No,0,State,Discontinued,29,1972,1974,no
45.50,Maunaloa T 6600,19.49058134,-155.3855564,7500,UH BOTANY DEPT,No,0,State,Discontinued,5,1972,1972,no
46.00,7500,19.48030335,-155.4222225,7500,BALDWIN PAUL,No,0,State,Discontinued,8,1948,1949,no
46.10,6700,19.46919317,-155.4083338,6700,BALDWIN PAUL,No,0,State,Discontinued,9,1948,1949,no
46.11,Kalanaokuaiki,19.37475671,-155.2363879,3350,BALDWIN PAUL,No,0,State,Discontinued,10,1948,1949,no
46.12,Kipuka Nene #3,19.33281667,-155.2783305,3000,BALDWIN PAUL,No,0,State,Discontinued,10,1948,1949,no
46.13,Kipuka Nene #2,19.33281667,-155.2783305,3000,BALDWIN PAUL,No,0,State,Discontinued,10,1948,1949,no
46.14,Kipuka Papalinam,19.31698707,-155.2519419,2500,BALDWIN PAUL,No,0,State,Discontinued,2,1948,1948,no
46.15,Kipuka Keanabiho,19.31476284,-155.3072175,2350,BALDWIN PAUL,No,0,State,Discontinued,10,1948,1949,no
46.20,5900,19.46363826,-155.3916673,5900,BALDWIN,No,0,State,Discontinued,9,1948,1949,no
46.30,5500,19.47363808,-155.3630566,5500,BALDWIN PAUL,No,0,State,Discontinued,11,1948,1949,no
46.40,4400,19.43169672,-155.3416672,4400,BALDWIN PAUL,No,0,State,Discontinued,10,1948,1949,no
46.50,Bird Park,19.44197457,-155.2983343,4050,BALDWIN PAUL,No,0,State,Discontinued,10,1948,1949,no
46.70,TWIN CRATERS,19.41586577,-155.2388897,3875,PAUL BALDWIN,No,0,State,Discontinued,10,1948,1949,no
46.80,Lua Manu,19.39919969,-155.2544442,3660,BALDWIN PAUL,No,0,State,Discontinued,10,1948,1949,no
46.90,Ainahou Gate,19.35114724,-155.2258315,3070,BALDWIN PAUL,No,0,State,Discontinued,10,1948,1949,no
47.00,Keamoku Lava Flow,19.47555556,-155.3627778,5600,RAWS,No,0,RAWS,Discontinued,39,1988,1997,no
48.00,Pali 2,19.3175,-155.2922222,2780,RAWS,No,0,RAWS,Current,109,1999,2009,no
49.00,Keaumo,19.47361111,-155.3588889,5520,RAWS,Yes,12,RAWS,Current,116,1999,2009,no
51.00,Kilauea N Rim,19.43697516,-155.2705566,4050,WENTWORTH CK,No,0,State,Discontinued,224,1945,1966,no
51.10,Keauhou,19.43864165,-155.27889,4000,WH SHIPMAN,No,0,State,Discontinued,79,1948,1978,no
51.13,Vol Golf Course,19.43864167,-155.2761122,4000,MAUNA LOA OBSV,No,0,State,Discontinued,9,1978,1979,no
51.20,Kilauea Camp,19.40531048,-155.2577778,3765,HAW VOL NAT PARK,No,0,State,Discontinued,50,1934,1938,no
51.30,Olaa 29 Miles,19.43030925,-155.25139,3800,GIFFARD WM,No,0,State,Discontinued,57,1917,1921,no
51.40,Volcano House,19.42864255,-155.2588899,3975,VOLCANO HOUSE,Yes,12,State,Discontinued,271,1888,1916,no
51.50,Volcano Farm Lot,19.4653072,-155.2488911,3850,GALBRAITH WR,No,0,State,Discontinued,164,1956,1975,no
51.70,Mauna Loa Truck,19.43864136,-155.3083342,4000,USDA FRUIT FLY L,No,0,State,Discontinued,22,1952,1953,no
51.80,Kipuka Ki,19.44336304,-155.3172232,4250,USDA FRUIT FLY L,No,0,State,Discontinued,41,1950,1974,no
51.90,Volcano Golf Cou,19.48086163,-155.2669465,4200,WRISTON ARTHUR,No,0,State,Discontinued,203,1976,1993,no
52.00,Halemaumau,19.40197768,-155.2805551,3650,HAW VOL NAT PARK,Yes,12,"NCDC, State, State/NCDC",Current,886,1932,2008,no
52.10,UWEKAHUNA,19.41864319,-155.2922225,4050,HAWAII VOL OBS,No,0,State,Discontinued,479,1948,1988,no
52.20,KILAUEA SW RIFT,19.40003424,-155.2944439,3700,MAUNA LOA OBSV,No,0,State,Discontinued,10,1978,1979,no
54.00,Hawaii Nat Pk Hq,19.429741,-155.257146,3970,HAW VOL NATL PARK,Yes,12,"NCDC, State, State/NCDC",Current,1129,1913,2007,no
54.10,Ohianlani Dairy,19.42669854,-155.2386123,3780,ENGLISH MISS M,Yes,11,State,Discontinued,277,1934,1957,no
54.11,KILAUEA D DF,19.41086592,-155.2447226,3600,HAW VOL NAT PARK,No,0,State,Discontinued,10,1966,1968,no
54.12,DEVASTATION AREA,19.4069771,-155.2544445,3700,HAW VOL NAT PARK,No,0,State,Discontinued,10,1966,1968,no
54.13,DEVASTATION AREA,19.40225508,-155.2580554,3700,HAW VOL NAT PARK,No,0,State,Discontinued,10,1966,1968,no
54.14,Devastation Area,19.3958665,-155.261944,3660,HAW VOL NAT PARK,No,0,State,Discontinued,10,1966,1968,no
54.20,Glenwood,19.5105,-155.1722,2620,HELBUSH XL,No,0,"Hydronet, State",Current,330,1916,2008,no
54.30,Glenwood-P Sug,19.52030552,-155.1372266,2180,PUNA SUGAR,No,0,State,Discontinued,93,1951,1959,no
54.40,26 Miles,19.44003119,-155.2111136,3450,SHIPMAN WH,No,0,State,Discontinued,297,1951,1976,no
54.50,Haunani Road,19.43030932,-155.2472234,3900,HORNER EUGENE,No,0,State,Discontinued,60,1954,1958,no
54.60,KILAUEA KI B-BF,19.41586565,-155.2488895,3480,HAW VOL NAT PARK,No,0,State,Discontinued,10,1966,1968,no
54.70,Kilauea Iki #1,19.41419906,-155.2483338,3508,HAW VOL NAT PK,No,0,State,Discontinued,27,1960,1968,no
54.80,KILAUEA C CF,19.41308797,-155.2502782,3480,HAW VOL NAT PARK,No,0,State,Discontinued,10,1966,1968,no
54.90,KILAUEA A AF,19.4128103,-155.2425006,3600,HAW VOL NAT PARK,No,0,State,Discontinued,10,1966,1968,no
55.00,Volcano Haunani,19.43225376,-155.2375015,3740,MCBRIDE RICHARD,Yes,11,State,Discontinued,270,1970,1993,no
56.00,S Glenwood,19.33031822,-155.3138836,2130,SUSAN CAREY,No,0,State,Discontinued,44,1980,1983,no
57.00,Kupu Kupu,19.34805556,-155.1258333,2331,RAWS,No,0,RAWS,Discontinued,1,2003,2003,no
58.00,Ainahou,19.34420357,-155.2294425,2975,SHIPMAN WH,Yes,9,State,Current,769,1942,2008,no
58.10,Ainahou Makai,19.33531532,-155.2205533,2750,SHIPMAN WH,Yes,8,State,Discontinued,339,1945,1973,no
58.20,Ainahou Stl Tk,19.34337023,-155.2261091,2975,SHIPMAN WH,No,0,State,Discontinued,142,1961,1973,no
59.00,Makaopuhi,19.36281255,-155.1749988,2860,HAW VOLCANO OBS,No,0,State,Discontinued,80,1961,1970,no
63.00,Kaloko-Honokohau,19.67277778,-156.0202778,25,RAWS,No,0,RAWS,Current,49,2005,2009,no
65.00,Pahoa,19.49197865,-154.9455586,670,PUNA SUGAR,Yes,4,"NCDC, State, State/NCDC",Current,1116,1902,2007,no
65.10,Waiakaheula,19.50031124,-154.9355587,750,GOUDIE W,No,0,State,Discontinued,45,1894,1898,no
65.20,Lower Pahoa,19.52058697,-154.9222264,380,PUNA SUGAR,No,0,State,Discontinued,47,1955,1959,no
65.30,Upper Pahoa,19.458085,-154.972228,1170,PUNA SUGAR,No,0,State,Discontinued,47,1955,1959,no
66.00,Kapoho Upper,19.48864456,-154.8738924,400,PUNA SUGAR,Yes,12,State/NCDC,Discontinued,257,1934,1955,no
66.10,Lava Tree Park,19.48364556,-154.9038916,650,STATE DIV PARKS,No,0,State,Discontinued,243,1956,1978,no
66.30,Kapoho,19.48170105,-154.8555587,200,WINFORD GARDENS,No,0,State,Discontinued,17,1966,1968,no
66.50,Malama Ki Farm,19.46031311,-154.8847242,345,UAES,Yes,12,State,Discontinued,128,1962,1975,no
67.00,Kamaile,19.43364418,-154.9305556,560,PUNA SUGAR,Yes,12,State/NCDC,Discontinued,312,1929,1955,no
67.10,Kalapana(Wilson),19.35197941,-154.9741642,10,WE WILSON,No,0,State,Discontinued,48,1897,1900,no
67.11,Leilani Estate,19.45448236,-154.906945,725,ROSS GIDLEY,No,0,State,Discontinued,52,1982,1986,no
67.20,Kaueleau,19.45809107,-154.9388901,1000,HENDERSON AR,No,0,State,Discontinued,113,1908,1917,no
67.30,Kaueleau 2,19.44031411,-154.905556,350,GREEN JS,No,0,"NCDC, State/NCDC",Discontinued,202,1908,1927,no
67.40,Pokoiki,19.46031494,-154.8472247,10,RYCROFT R,No,0,State,Discontinued,171,1891,1983,no
67.50,Hayhalalekai,19.47198119,-154.8322251,15,HAY C,Yes,12,State,Discontinued,412,1946,1980,no
67.60,Kapaahu,19.35364168,-154.992219,100,USDA FRUIT FLY L,No,0,State,Discontinued,12,1951,1951,no
67.80,Kalapana No 1,19.32698155,-155.0286094,10,HAW VOL NAT PARK,Yes,12,"NCDC, State, State/NCDC",Discontinued,269,1966,1989,no
67.90,Keauohana 67.9,19.41,-154.947,631,BWS,No,0,State,Discontinued,179,1976,1992,no
68.00,Holualoa Beach,19.60530476,-155.9755468,10,DILLINGHAM INV CO,Yes,10,"NCDC, State, State/NCDC",Discontinued,710,1918,1979,no
68.10,Middle Holualoa,19.60336072,-155.960547,475,CAPT COOK CATTLE,Yes,10,"State, State/NCDC",Discontinued,563,1931,1978,yes
68.11,P Empress Hotel,19.63474693,-155.9872138,120,P EMPRESS HOTEL,No,0,State,Discontinued,20,1967,1968,no
68.13,Keahole Airport,19.72779668,-156.0586039,10,FAA-HAWN AIRLINE,Yes,12,"NCDC, State, State/NCDC",Current,367,1971,2007,no
68.15,Kailua Hts,19.6136377,-155.9638804,500,PHAILO GILLARD,No,0,State,Discontinued,54,1979,1983,no
68.16,Holualoa-Stecker,19.60586062,-155.9561027,765,STECKER H C,Yes,12,State,Discontinued,199,1970,1987,no
68.18,K100,19.61919321,-155.9461028,1480,G KOIKE,No,0,State,Discontinued,150,1976,1989,no
68.19,K101,19.61863748,-155.9572138,880,G KOIKE,No,0,State,Discontinued,149,1977,1989,no
68.20,Lanihau,19.66196803,-155.9588816,1530,KONA EXP STATION,Yes,10,"NCDC, State, State/NCDC",Current,828,1938,2007,yes
68.30,Kona Airport,19.64363491,-156.0072139,15,HAWN AIRLINES,Yes,12,"NCDC, State, State/NCDC",Discontinued,352,1949,1978,no
68.40,Kailua Kona,19.6386355,-155.9905472,20,PARKER G,No,0,State,Discontinued,29,1985,1987,no
68.50,Holualoa (1450),19.61530451,-155.9505472,1450,KONA DEVELOP CO,No,0,State,Discontinued,317,1901,1928,no
68.60,Lanihau,19.66363453,-155.9638815,1540,FW BARTELS,No,0,State,Discontinued,59,1895,1900,no
68.70,Lanihau Mauka 1,19.66530124,-155.9505484,1930,KONA EXP STATION,No,0,State,Discontinued,189,1958,1979,no
68.80,Lanihau Mauka 2,19.66530131,-155.9405488,2440,HWA,No,0,State,Discontinued,23,1957,1960,no
68.90,Lanihau Mauka 3,19.6669679,-155.9305492,2900,HWA,No,0,State,Discontinued,21,1958,1960,no
69.00,Kahaluu Beach,19.57641794,-155.966102,40,PUUWAAWAA RANCH,Yes,11,State,Discontinued,365,1947,1978,no
69.10,Ohia Liilii,19.7186307,-155.9305503,4500,HUEHUE RANCH,Yes,10,State,Discontinued,299,1935,1959,no
69.11,Laaloa,19.5936393,-155.9522137,800,MILLER CD,No,0,State,Discontinued,16,1893,1895,no
69.16,Holualoa Makai,19.62280389,-155.9555471,1040,WEINRICH SID,Yes,12,State,Discontinued,200,1968,1985,no
69.18,Hualalai Ranch,19.73779569,-155.9572158,2820,HUALALAI RANCH,No,0,State,Discontinued,60,1973,1977,no
69.19,Hualalai R Mauka,19.73390724,-155.9416608,3800,HUALALAI RANCH,No,0,State,Discontinued,60,1973,1977,no
69.20,Kahaluu,19.59030624,-155.9472137,1080,KONA EXPT STATION,Yes,10,State,Discontinued,314,1938,1964,no
69.21,Lolola,19.72612933,-155.988882,1200,FITZGIBBON W,No,0,State,Discontinued,84,1976,1983,no
69.22,Kalaoa,19.72529635,-155.9722154,2000,FLOYD  MC COY,No,0,State,Discontinued,128,1975,1986,no
69.23,Kona Sunshine Es,19.59169499,-155.9508248,900,NICHOLS R C,Yes,12,State,Discontinued,321,1972,1999,no
69.24,Moanuiahea 69.24,19.738,-155.945,2820,NCDC,No,0,NCDC,Current,121,1991,2007,no
69.30,Honokohau Ranch,19.6836329,-155.9738818,1275,GREENWELL EC,Yes,12,State,Discontinued,276,1910,1961,no
69.40,Kohanaiki,19.70696432,-155.9755486,1580,AMERICAN FACTORS,No,0,State,Discontinued,76,1956,1962,no
69.50,Kaiolu,19.61863691,-155.9861025,30,JC TYLER SR,Yes,12,State,Discontinued,98,1954,1962,no
69.60,Kuona Olu,19.60863781,-155.9786024,10,EDNIE D,No,0,State,Discontinued,48,1954,1957,no
69.70,Kailua-Yowell,19.64696891,-155.963881,950,YOWELL WS,Yes,12,State,Discontinued,253,1880,1902,no
69.80,Lion Grass,19.62197061,-155.9555471,1000,PUUWAAWAA RANCH,No,0,State,Discontinued,108,1958,1967,no
69.90,Keopu Mcwayne,19.64502453,-155.9672142,800,PUUWAAWAA RANCH,Yes,12,State,Discontinued,234,1958,1978,no
70.00,Holualoa,19.63197026,-155.9105487,3220,STATE DIV FTRY,Yes,11,"NCDC, State, State/NCDC",Current,1048,1905,2007,no
70.10,Halepiula Shed,19.73196263,-155.8572198,4500,PUUWAAWAA RANCH,Yes,8,State,Discontinued,431,1938,1974,no
70.11,Kileo,19.72973994,-155.8263868,4380,PUUWAAWAA RANCH,No,0,State,Discontinued,120,1961,1974,no
70.12,Shangrila,19.7325179,-155.8438866,4377,PUUWAAWAA RANCH,No,0,State,Discontinued,143,1961,1974,no
70.13,Panicum Field,19.60752745,-155.9305476,2080,PALANI RANCH,Yes,12,State,Discontinued,269,1969,2002,no
70.14,Reservoir (5080),19.62919182,-155.851106,5080,PALANI RANCH,Yes,12,State,Discontinued,251,1969,2002,no
70.15,Shangrila Mauka,19.72779615,-155.8511087,4750,PUUWAAWAA RANCH,No,0,State,Discontinued,53,1965,1974,no
70.16,Waiaha Stream*,19.63,-155.94,1511,Hydronet,Yes,10,Hydronet,Current,188,1991,2007,no
70.20,Kaalapuuali,19.62363684,-155.86055,4500,HONOKOHAU RANCH,Yes,11,State,Discontinued,546,1939,1989,no
70.30,Holualoa-Smith,19.6119714,-155.9511027,1210,SMITH MRS TWIGG,Yes,12,State,Discontinued,182,1948,1980,no
70.40,Holualoa Camp,19.64363591,-155.8838834,4440,HUEHUE RANCH,Yes,12,State,Discontinued,215,1958,1980,no
70.50,Waiaha Stream 1,19.63197014,-155.9472142,1540,BWS,No,0,State,Discontinued,47,1953,1957,no
70.60,Waiaha Stream 2,19.63363677,-155.9372146,2060,USGS,No,0,State,Discontinued,148,1960,1991,no
70.70,C LUAWAI,19.63363684,-155.9263816,2580,USGS,No,0,State,Discontinued,173,1961,1983,no
70.80,Rt Br Waiaha St,19.64196959,-155.9119379,3300,USGS,Yes,12,State,Discontinued,225,1960,1982,no
71.00,Honuaula,19.67030064,-155.8755513,6250,STATE DIV FTRY,Yes,12,"NCDC, State, State/NCDC",Current,786,1928,2007,no
71.10,Waihou I,19.75696073,-155.8538864,3340,PUUWAAWAA RANCH,Yes,11,State,Discontinued,399,1940,1974,no
72.00,Hualalai,19.68863263,-155.870552,8197,STATE DIV FTRY,Yes,11,"NCDC, State, State/NCDC",Current,773,1929,2007,no
73.00,Puu Lehua,19.56530574,-155.8055495,4850,GREENWELL ESTATE,Yes,10,"NCDC, State, State/NCDC",Discontinued,772,1922,1986,no
73.10,Keauhou 73a,19.5569752,-155.9222134,1890,BISHOP ESTATE,Yes,8,"NCDC, State, State/NCDC",Discontinued,425,1927,1986,no
73.11,Kahaluu Forest,19.58697317,-155.895548,3300,BISHOP ESTATE,No,0,State,Discontinued,22,1960,1962,no
73.12,KAINALIU BEACH,19.52864335,-155.9563787,15,WALL RANCH,No,0,State,Discontinued,492,1959,2000,no
73.13,Honalo 1,19.54892007,-155.9288797,1480,WODEHOUSE CN,Yes,12,State,Discontinued,167,1958,1972,no
73.17,Puu O Hau,19.50697799,-155.9505451,10,WH GREENWELL ESTATE,Yes,10,State,Discontinued,310,1960,1986,no
73.18,Pineapple,19.5036449,-155.9338788,800,GREENWELL ESTATE,Yes,9,State,Discontinued,282,1960,1983,no
73.19,Honalo,19.55669709,-155.9544349,400,PUUWAAWAA RANCH,Yes,11,State,Discontinued,81,1960,1967,no
73.20,Kainaliu,19.53364321,-155.9255461,1500,KONA EXP STATION,Yes,11,"NCDC, State/NCDC",Current,840,1931,2007,no
73.21,Honalo 3,19.55836392,-155.8952697,3000,WODEHOUSE CN,No,0,State,Discontinued,76,1966,1972,no
73.23,Field E,19.53503206,-155.9205462,1720,KONA EXP STATION,No,0,State,Discontinued,24,1968,1970,no
73.24,Railroad,19.53364304,-155.9424901,680,WALL RANCH,No,0,State,Discontinued,364,1968,2000,no
73.25,Pali Honohono,19.56808534,-155.8824924,3400,WALL RANCH,No,0,State,Discontinued,265,1968,1991,no
73.26,Hokakano Beach,19.52558798,-155.9555453,0,ACKERMAN RANCH,Yes,12,State,Discontinued,166,1966,1980,no
73.27,Honalo Mauka,19.54280936,-155.9249908,1600,HIDEMANN ED,No,0,State,Discontinued,11,1971,1971,no
73.28,Waihou,19.53530984,-155.9008245,2480,HIDEMANN ED,No,0,State,Discontinued,60,1964,1971,no
73.29,Kainaliu Upper*,19.53,-155.9,2360,Hydronet,Yes,9,Hydronet,Discontinued,99,1995,2004,no
73.30,Mokuaikaua Rd,19.57697391,-155.923325,1980,BISHOP ESTATE,Yes,12,State,Discontinued,91,1954,1962,no
73.31,Puuloa-Alter,19.5589193,-155.9419352,1000,ALTER MRS N,No,0,State,Discontinued,60,1973,1977,no
73.32,Honalo,19.53308764,-155.9291571,1450,E FINEFROCK,No,0,State,Discontinued,69,1977,1983,no
73.34,Kainaliu,19.53333333,-155.9333333,1364,SCAN,No,0,SCAN,Current,53,2005,2009,no
73.40,Keauhou Tst Ste,19.57530736,-155.9222139,2040,HWA,No,0,State,Discontinued,26,1958,1960,no
73.50,Keauhou 2,19.5603083,-155.9169358,2100,BISHOP ESTATE,No,0,State,Discontinued,37,1954,1957,no
73.60,Honalo 2,19.54892013,-155.9238799,1800,WODEHOUSE CN,Yes,12,State,Discontinued,221,1954,1972,no
73.70,Lehuula,19.53530976,-155.9272128,1410,WALL RANCH,Yes,10,State,Discontinued,523,1956,2000,no
73.80,Hokukano Makai,19.52364363,-155.9422121,500,ACKERMAN RANCH,Yes,10,State,Discontinued,276,1955,1980,no
73.90,Hokukano Mauka,19.52364378,-155.9238793,1410,ACKERMAN RANCH,Yes,8,State,Discontinued,278,1955,1980,no
74.00,Kanahaha,19.58863713,-155.7922171,5060,GREENWELL ESTATE,Yes,11,"NCDC, State, State/NCDC",Discontinued,765,1922,1986,no
74.10,Kaukahoku,19.57197354,-155.8588819,4030,WALL RANCH,Yes,10,State,Discontinued,519,1956,2000,no
74.20,Kahaluu Forest 2,19.60419327,-155.8430498,4600,BISHOP ESTATE,No,0,State,Discontinued,18,1960,1961,no
74.40,Monohaa,19.5486417,-155.8558257,4000,WALL RANCH,No,0,State,Discontinued,229,1968,1987,no
74.50,New Field,19.54641816,-155.8083267,4767,GREENWELL RANCH,Yes,9,State,Discontinued,138,1972,1983,no
74.60,Kikiaeae,19.55336097,-155.7766609,5490,GREENWELL RANCH,Yes,7,State,Discontinued,138,1972,1983,no
74.70,Momohaa (3875),19.54919725,-155.8577702,3875,GREENWELL RANCH,Yes,10,State,Discontinued,138,1972,1983,no
75.00,Ahua Umi,19.63363389,-155.7788854,5220,GREENWELL ESTATE,Yes,12,"NCDC, State, State/NCDC",Discontinued,774,1922,1986,no
75.10,Pta Kipuka Alala,19.66694444,-155.7077778,5385,RAWS,Yes,12,RAWS,Current,105,1999,2009,no
76.00,Kulani Mauka,19.58363059,-155.4538895,8300,NWS,Yes,12,"NCDC, State, State/NCDC",Current,539,1950,2007,no
77.00,PAPALOA,19.50530914,-155.7938816,5120,KEALAKEKUA RANCH,No,0,State,Discontinued,479,1932,1973,no
77.10,PAPAI CLARK,19.50364141,-155.7672155,5900,KEALAKEKUA RANCH,No,0,State,Discontinued,190,1958,1973,no
77.20,PAUAHI,19.50031068,-155.8238808,4320,KEALAKEKUA RANCH,No,0,State,Discontinued,250,1952,1973,no
77.30,PUMP 4,19.50836608,-155.8352697,4055,KEALAKEKUA RANCH,No,0,State,Discontinued,232,1953,1973,no
77.40,JP,19.49197887,-155.8538801,3550,KEALAKEKUA RANCH,No,0,State,Discontinued,250,1952,1973,no
77.50,HOOHUI MAKANI,19.5036387,-155.7055503,8100,KEALAKEKUA RANCH,No,0,State,Discontinued,6,1958,1958,no
77.60,KEANAKINI,19.49697356,-155.7322162,7100,KEALAKEKUA RANCH,No,0,State,Discontinued,166,1959,1973,no
77.70,#3 A PUMP,19.50531134,-155.8569358,3550,KEALAKEKUA RANCH,No,0,State,Discontinued,157,1962,1978,no
77.80,Airport-K Ranch,19.51808673,-155.8097148,4700,KEALAKEKUA RANCH,Yes,12,State,Discontinued,95,1966,1973,no
77.90,Orchard,19.52197681,-155.8552696,3750,GREENWELL RANCH,Yes,12,State,Discontinued,165,1972,1986,no
78.00,Kulani Sch Site,19.5819662,-155.3338911,5710,DEPT SOCIAL SVC,Yes,10,"NCDC, State, State/NCDC",Discontinued,476,1947,1993,no
79.00,Kulani Camp,19.54863532,-155.3005575,5170,DEPT SOCIAL SVC,Yes,12,"NCDC, State, State/NCDC",Current,718,1947,2007,no
79.10,Upper Waiakea,19.57224615,-155.1955599,6000,STATE DIV FTRY,No,0,State,Discontinued,189,1963,1979,no
79.50,Kulani Farm,19.55807904,-155.3111132,5340,UH EXP STA,No,0,State,Discontinued,7,1975,1975,no
80.00,Kalaieha,19.70057058,-155.4616682,6710,PARKER RANCH,Yes,11,State,Discontinued,790,1915,1981,no
80.10,Humuula-Parker,19.70529263,-155.4722236,6685,PARKER S JR,No,0,State,Discontinued,92,1905,1914,no
80.20,PUU OMAOKOLLI,19.71029244,-155.4888901,6720,STATE DIV FTRY,No,0,State,Discontinued,162,1950,1966,no
81.00,Kulani Ditch,19.52197024,-155.2955573,5120,DEPT SOCIAL SVC,No,0,State,Discontinued,22,1948,1950,no
81.10,Kilauea For Res,19.50224841,-155.3247237,5200,UH BOTANY DEPT,No,0,State,Discontinued,29,1972,1974,no
82.00,Puu Oo,19.72362526,-155.385559,6300,SHIPMAN WH,No,0,"NCDC, State, State/NCDC",Discontinued,606,1910,1975,yes
82.10,Saddle House,19.67834962,-155.381392,5680,SHIPMAN WH,Yes,6,State,Discontinued,88,1968,1975,no
82.20,Kole,19.74945733,-155.4191691,860,DIV FISH & GAME,No,0,State,Discontinued,9,1976,1977,no
83.00,Quarry Saddle Rd,19.68586111,-155.2942222,4220,USGS,Yes,9,USGS,Current,280,1967,2009,no
83.10,Wailuku River,19.71862652,-155.266117,3620,USGS,No,0,State,Discontinued,169,1967,1982,no
84.00,Saddle Rd,19.69362812,-155.2005624,2340,BWS,No,0,"NCDC, State, State/NCDC",Discontinued,346,1949,1978,no
85.00,Hilo A&F,19.70529511,-155.0722308,35,STATE DIV FTRY,Yes,12,"NCDC, State, State/NCDC",Discontinued,796,1926,1998,no
85.20,Waiakea Uka*,19.66,-155.13,997,Hydronet,No,0,Hydronet,Current,213,1991,2008,no
86.10,Hilo,19.72529379,-155.087231,40,CHAVES C,Yes,12,"NCDC, State, State/NCDC",Discontinued,1012,1880,1988,no
86.20,Kauman (1960),19.6822399,-155.1805626,1960,PUNA SUGAR,Yes,11,State,Discontinued,324,1921,1947,no
86.30,PONAHAWAI,19.6836287,-155.1855626,2150,STATE DIV FTRY,No,0,State,Discontinued,18,1950,1951,no
86.40,Hilo Coan,19.722849,-155.0805644,50,REV TITUS COAN,No,0,State,Discontinued,12,1846,1847,no
86.50,KAUMANA,19.68665633,-155.1822294,2200,USDA FRUIT FLY LAB,No,0,State,Discontinued,19,1950,1951,no
86.60,Hilo Countryclub,19.67807358,-155.1586186,1520,WILLS REX II,No,0,State,Discontinued,103,1970,1978,no
87.00,Hilo Airport*,19.72,-155.05,27,NWS,Yes,12,"Hydronet, Hydronet/NCDC, NCDC, State, State/NCDC",Current,840,1939,2008,no
87.10,Waiakea Mill,19.71196134,-155.0755642,50,WAIAKEA MILL CO,Yes,12,"State, State/NCDC",Discontinued,694,1891,1948,no
87.20,Hilo Breakwater,19.72696086,-155.0422313,15,US ENGINEERS,No,0,State,Discontinued,55,1911,1916,no
88.00,Waiakea,19.63863119,-155.1691731,1920,PU SUGAR,No,0,State/NCDC,Discontinued,266,1930,1952,no
88.10,Kaumana-Hilo Sug,19.68362898,-155.1405634,1125,HILO SUGAR,Yes,12,"NCDC, State, State/NCDC",Discontinued,809,1896,2006,no
88.20,Waiakea Scd,19.65529741,-155.1205634,940,SHINICHI KANESHIRO,Yes,12,"NCDC, State/NCDC",Current,657,1953,2007,no
88.30,Piihonua-H Mill,19.71362744,-155.1305639,1000,HAWAIIAN MILL,No,0,State,Discontinued,126,1906,1918,no
88.40,Piihonua Camp 5,19.72112693,-155.1547303,1250,HILO SUGAR,Yes,12,State,Discontinued,396,1951,1986,no
88.50,Kaumana 2,19.67196275,-155.1638962,1720,HILO COUNTRY CLU,No,0,State,Discontinued,92,1932,1939,no
88.60,Waiakea Camp 8,19.64863111,-155.1205633,1050,WAIAKEA MILL,No,0,State,Discontinued,292,1915,1939,no
88.80,Waiakea Exp Farm,19.644743,-155.0805636,600,UNIV HAWAII,Yes,12,State,Discontinued,131,1962,1975,no
88.90,Thrumms,19.704739,-155.1350082,0,NORTHWOOD RP,No,0,State,Discontinued,4,1976,1977,no
89.00,Piihonua,19.73029311,-155.16723,1730,MAU KEA SUGAR,Yes,11,"NCDC, State, State/NCDC",Discontinued,670,1925,1981,no
89.10,Waiakea Camp 6,19.66529712,-155.1019525,615,WAIAKEA MILL,Yes,9,State,Discontinued,299,1915,1948,no
89.11,Piihonua Kpua*,19.71,-155.14,974,Hydronet,No,0,Hydronet,Current,211,1991,2008,no
89.20,Amauulu,19.73529295,-155.1455638,1280,HILO SUGAR,Yes,11,"NCDC, State, State/NCDC",Discontinued,399,1953,1986,no
89.40,Kaiwiki,19.75029229,-155.1288977,1100,HILO SUGAR,No,0,State,Discontinued,222,1948,1967,no
89.50,Amauulu Camp 4,19.73362642,-155.1300086,900,HILO SUGAR,No,0,State,Discontinued,115,1948,1958,no
89.60,Dairy,19.74140375,-155.1536193,1500,HILO SUGAR,No,0,State,Discontinued,12,1952,1953,no
89.70,Lower Piihonua,19.71196086,-155.1305639,815,MO ISHERWOOD,Yes,12,State,Discontinued,344,1957,2005,no
89.90,Piihonua 2,19.71362742,-155.1338972,900,HILO SUGAR,No,0,State,Discontinued,73,1933,1939,no
90.00,Wainaku Makai,19.738963,-155.09093,100,MAUNA KEA SUGAR,Yes,12,State,Discontinued,1023,1894,1979,no
90.10,Hawaii Sub Off,19.72696031,-155.0955643,220,HSPA,Yes,12,State,Discontinued,669,1932,1987,no
91.00,Mountain View*,19.54,-155.11,1519,PU SUGAR,Yes,12,"Hydronet, NCDC, State, State/NCDC",Current,1245,1901,2008,no
91.10,Keaau,19.64335566,-154.9838981,15,SHIPMAN WH,Yes,12,State,Discontinued,335,1948,1976,no
91.20,Olaa (1650),19.53530469,-155.1205603,1650,RUSSELL DR N,No,0,State,Discontinued,103,1893,1902,no
91.30,Olaa Kurtistown,19.59363516,-155.0672294,645,DRANGA TA,Yes,2,"NCDC, State/NCDC",Discontinued,266,1904,1926,no
91.40,Kurtistown,19.57530287,-155.0672288,920,PUNA SUGAR,Yes,12,State,Discontinued,388,1951,1984,no
91.50,Orchid Land Est,19.55530513,-154.9905619,430,HAWAII CTY DWS,No,0,"NCDC, State",Discontinued,374,1960,1993,no
91.80,S Glewnwood 91.8,19.488,-155.149,2276.32,NCDC,Yes,12,NCDC,Discontinued,273,1980,2003,no
91.90,Pahoa Beacon*,19.54,-154.97,487,Hydronet,Yes,12,Hydronet,Current,214,1991,2008,no
92.00,Keaau/Olaa,19.62918887,-155.0333418,285,PU SUGAR,Yes,12,"NCDC, State, State/NCDC",Current,1242,1901,2007,no
92.10,Huehue (1960),19.75196134,-155.9722153,1960,HUEHUE RANCH,Yes,12,"NCDC, State, State/NCDC",Current,1110,1903,2007,no
92.20,Keaau Orchard,19.6419662,-155.0105644,90,KEAAU ORCHARD,No,0,State,Discontinued,354,1949,1978,no
92.30,Halepiula 3,19.76890493,-155.8972185,2340,PUUWAAWAA RANCH,Yes,12,State,Discontinued,159,1961,1974,no
92.40,Kukulu Kukui,19.63779937,-155.0391751,275,SHIPMAN WH,No,0,State,Discontinued,174,1962,1976,no
92.50,Kiholo,19.82580556,-155.8925833,932,USGS,No,0,USGS,Current,71,2002,2009,no
92.60,Keeau,19.67501957,-155.022509,80,PUNA PAPAYA,No,0,State,Discontinued,21,1982,1983,no
92.70,Mahaiula 92.7,19.757,-155.976,960,NCDC,No,0,NCDC,Current,122,1986,2007,no
93.00,Kapolo,19.50697752,-154.8405598,110,PU SUGAR,Yes,12,"NCDC, State/NCDC",Discontinued,822,1891,1960,no
93.10,Puu Anahulu,19.81528953,-155.843608,2150,PUUWAAWAA RANCH,Yes,12,"NCDC, State, State/NCDC",Discontinued,357,1942,1974,no
93.11,Kapoho Beach,19.48892483,-154.8200037,12,ARRUDA GENVIEVE,Yes,12,"NCDC, State/NCDC",Current,372,1975,2007,no
93.12,Puuanahulu,19.83277778,-155.7697222,2725,RAWS,No,0,RAWS,Current,50,2002,2007,no
93.20,Cape Kumukahi,19.51364496,-154.8188935,65,USCG,No,0,State,Discontinued,26,1957,1959,no
93.30,Panika,19.82528884,-155.8472188,2080,PUUWAAWAA RANCH,No,0,State,Discontinued,203,1957,1974,no
93.40,Eden Low,19.81862265,-155.8455523,2150,PUUWAAWAA RANCH,No,0,State,Discontinued,203,1957,1974,no
93.50,Kapoho Land Str,19.50364409,-154.8605597,290,BWS,No,0,"NCDC, State",Current,484,1960,2007,no
93.60,Kahuwai,19.531,-154.879,200,ORR JB,No,0,State,Discontinued,82,1966,1973,no
93.70,Kukui Akau,19.83084408,-155.8527742,1320,PUUWAAWAA RANCH,No,0,State,Discontinued,143,1961,1974,no
93.80,Kona Village,19.8314012,-155.9858256,40,KO VILLAGE RES,Yes,12,"NCDC, State, State/NCDC",Current,485,1967,2007,no
94.00,Kaupulehu Lava Flow,19.80333333,-155.9180556,1221,RAWS,No,0,RAWS,Current,6,2009,2009,no
94.10,Puu Waawaa,19.77279268,-155.8422198,2750,PUUWAAWAA RANCH,Yes,12,"NCDC, State, State/NCDC",Discontinued,1205,1894,1997,no
94.20,Kaumana (500),19.70057274,-155.1122306,500,MATSUNAGA J,Yes,11,State,Discontinued,416,1905,1940,no
94.30,Mamane Paddock,19.77029258,-155.8272201,3450,PUUWAAWAA RANCH,No,0,State,Discontinued,212,1956,1974,no
94.50,Puu Waawaa,19.795,-155.8452778,2326,RAWS,No,0,RAWS,Current,67,2003,2009,no
95.00,Puuhinei 2 Gf,19.88028279,-155.7205545,2560,PARKER RANCH,Yes,7,State,Discontinued,259,1941,1962,no
95.10,Puako,19.96694648,-155.8508282,5,GOTO ICHIRO,Yes,12,"NCDC, State/NCDC",Discontinued,427,1939,1976,no
95.20,Puuhinei Padd,19.89694899,-155.7638863,1500,PARKER RANCH,No,0,State,Discontinued,34,1914,1917,no
95.30,Puako (40),19.95528032,-155.8322176,40,PARKER RANCH,No,0,State,Discontinued,65,1962,1967,no
95.60,Waikoloa,19.92416667,-155.7936111,977,RAWS,No,0,RAWS,Current,6,2009,2009,no
95.70,Waikoloa Mauka,19.91639347,-155.8208292,610,STUDEBAKER CH,No,0,State,Discontinued,12,1976,1977,no
95.80,Waikaloa,19.93389178,-155.7877744,970,BOISE CASCADE,Yes,12,"NCDC, State/NCDC",Current,362,1975,2007,no
96.00,Puuhinei 1,19.89028236,-155.7372205,2000,PARKER RANCH,Yes,11,State,Discontinued,318,1936,1962,no
97.00,Keamuku,19.84028568,-155.717222,3120,PARKER RANCH,Yes,12,State,Discontinued,678,1924,1981,no
98.00,Maunakea Beach,20.00722122,-155.8249955,35,MAUNAKEA BEACH H,No,0,State,Discontinued,61,1967,1994,no
98.10,Puukohola Heiau,20.02666416,-155.81944,140,ROSE FUJIMORI,Yes,12,"NCDC, State/NCDC",Current,362,1977,2007,no
99.00,Pta West,19.77166667,-155.7022222,4290,RAWS,Yes,12,RAWS,Current,111,1999,2009,no
100.00,Waikii*,19.86,-155.65,4649,PARKER RANCH,Yes,11,"Hydronet, State",Current,1114,1896,2008,no
100.10,Waikii 4675,19.85861684,-155.6505568,4675,USDA FRUIT FLY L,No,0,State,Discontinued,12,1950,1950,no
100.20,Waikii (4800),19.85639474,-155.6461125,4810,CHARLES CAMPBELL,No,0,State,Discontinued,1,1978,1978,no
101.00,Pa Aalii,19.89778082,-155.6619444,3640,PARKER RANCH,No,0,State,Discontinued,128,1970,1981,no
101.10,Pta Keamuku,19.90222222,-155.6786111,3366,RAWS,No,0,RAWS,Current,13,2008,2009,no
102.00,Puu Anuanu,19.8536172,-155.6155573,5900,PARKER RANCH,Yes,4,State,Discontinued,259,1936,1962,no
102.10,Puu Laau,19.83195212,-155.5922244,7440,STATE DIV FTRY,Yes,9,"NCDC, State, State/NCDC",Discontinued,542,1932,1977,no
102.20,Kemole House,19.89528145,-155.5572233,5420,PARKER RANCH,No,0,State,Discontinued,37,1914,1917,no
102.30,Puu Anuanu Padd,19.83028568,-155.5805576,7500,PARKER RANCH,No,0,State,Discontinued,33,1914,1917,no
102.60,KILOHANA GS CAMP,19.81334203,-155.6338914,5600,BALDWIN RJ,No,0,State,Discontinued,15,1964,1965,no
102.70,Waikii (7400),19.82111958,-155.5844467,7482,CHARLES CAMPBELL,No,0,State,Discontinued,1,1978,1978,no
102.80,Ahumoa,19.83638889,-155.6130556,6568,RAWS,No,0,RAWS,Current,5,2009,2009,no
103.00,Makahalau,19.9736104,-155.5488883,3820,PARKER RANCH,Yes,11,"NCDC, State, State/NCDC",Current,1159,1910,2007,no
103.10,Mana,19.99694234,-155.5574989,3520,PARKER RANCH,No,0,State,Discontinued,135,1970,1981,no
103.20,Pakalani,19.99610827,-155.6130537,3030,UHAES,No,0,State,Discontinued,94,1976,1984,no
104.00,Kemole 2,19.91028051,-155.5605563,4920,PARKER RANCH,Yes,7,State,Discontinued,317,1936,1962,no
105.00,Kemole 2-P Ranch,19.93194593,-155.5322229,4680,PARKER RANCH,Yes,11,State,Discontinued,526,1936,1981,no
106.00,Old Dairy,19.96694407,-155.5288888,4160,PARKER RANCH,Yes,12,State,Discontinued,618,1909,1961,no
107.00,Pohakuloa (6510),19.74862426,-155.5255567,6510,STATE DIV FTRY,Yes,12,"NCDC, State, State/NCDC",Discontinued,483,1938,1978,no
107.20,Pohakuloa (5700),19.78028858,-155.5972248,5700,PARKER RANCH,No,0,State,Discontinued,36,1914,1917,no
107.40,PTA East,19.68277778,-155.5452778,6430,RAWS,No,0,RAWS,Discontinued,50,1999,2004,no
108.00,PTA Portable,19.74555556,-155.6272222,5760,RAWS,No,0,RAWS,Current,69,2000,2008,no
109.00,PTA Range 17,19.74583333,-155.6261111,5690,RAWS,No,0,RAWS,Current,59,2004,2009,no
110.00,Puunoho 1,19.97361043,-155.506389,4210,PARKER RANCH,Yes,11,State,Discontinued,527,1936,1981,no
110.10,Puunoho Paddock,19.98027671,-155.5138888,4200,PARKER RANCH,No,0,State,Discontinued,32,1914,1917,no
110.20,Nienie Yates,19.98860959,-155.5188886,3845,HAWN HOMELANDS,No,0,State,Discontinued,343,1976,2006,no
111.00,Halepohaku,19.76029046,-155.4555569,9220,STATE DIV FTRY,Yes,12,"NCDC, State, State/NCDC",Current,735,1939,2007,no
111.10,HOPUKANE SPRINGS,19.78362293,-155.5005562,10380,STATE DIV FTRY  1,No,0,State,Discontinued,163,1952,1966,no
111.20,Mauna Kea Obs,19.823305,-155.469888,13631,UH-HILO OBSERVATORY,Yes,10,State,Discontinued,152,1965,1981,no
112.00,Hanaipoe,19.94361185,-155.4588902,5120,PARKER RANCH,Yes,11,State,Discontinued,523,1936,1981,no
113.00,Puu Mali,19.90722465,-155.4372243,6960,KUKAIAU RANCH,Yes,9,"NCDC, State, State/NCDC",Discontinued,513,1932,1976,no
113.10,Puuhala,19.9136132,-155.4305575,6500,KUKAIAU RANCH,No,0,State,Discontinued,51,1914,1918,no
113.20,USGS HI,19.92666667,-155.44,7103,RAWS,No,0,RAWS,Current,32,2007,2009,no
114.00,Hope A,19.97361002,-155.4138903,3980,KUKAIAU RANCH,Yes,12,"NCDC, State, State/NCDC",Discontinued,772,1909,1973,no
114.10,Dairy Field,20.00305275,-155.4300006,3160,KUKAIAU RANCH,No,0,State,Discontinued,69,1961,1970,no
115.00,Stone Corral,19.94361165,-155.4155573,5240,KUKAIAU RANCH,Yes,9,"NCDC, State, State/NCDC",Discontinued,712,1914,1973,no
116.00,Papa-K Ranch,19.95027798,-155.3905576,4750,KUKAIAU RANCH,Yes,10,State,Discontinued,351,1944,1973,no
116.10,Garden,19.94222299,-155.3733358,4960,KUKAIAU RANCH,No,0,State,Discontinued,89,1964,1973,no
117.00,Halepiula,19.92861253,-155.3905577,5770,KUKAIAU RANCH,Yes,9,"NCDC, State, State/NCDC",Discontinued,728,1914,1976,no
118.00,Umikoa,19.98027624,-155.3788912,3420,KUKAIAU RANCH,Yes,12,"NCDC, State, State/NCDC",Discontinued,985,1894,1976,no
118.10,Field 127,19.99860831,-155.3505585,2180,HAMAKUA MILL,No,0,State,Discontinued,132,1958,1968,no
118.30,7A,20.00388571,-155.3705579,2240,HAMAKUA MILL,No,0,State,Discontinued,224,1966,1984,no
118.40,Field 128,19.99860832,-155.3552807,2280,HAMAKUA MILL,No,0,State,Discontinued,290,1969,1994,no
120.00,Puu Kihe,19.89528116,-155.3922245,7750,KUKAIAU RANCH,Yes,8,"NCDC, State, State/NCDC",Discontinued,728,1915,1976,no
120.10,Puu Kea,19.89194785,-155.4072245,8540,KUKAIAU RANCH,No,0,State,Discontinued,204,1914,1932,no
121.00,Iolehaehae Tanks,19.90694754,-155.361114,6300,KUKAIAU RANCH,Yes,11,State,Discontinued,471,1933,1973,no
121.10,Kukaiau 7850,19.89694815,-155.3638918,7850,UNKNOWN,No,0,State,Discontinued,12,1903,1905,no
122.00,Laaumaia,19.76695663,-155.3569487,6580,PARKER RANCH,No,0,State,Discontinued,118,1936,1947,no
123.00,Kaala,19.92194665,-155.3538919,5460,KUKAIAU RANCH,Yes,10,"NCDC, State, State/NCDC",Discontinued,705,1914,1973,no
123.10,Keanakolu-Parker,19.91361396,-155.3472253,5500,PARKER S JR,No,0,State,Discontinued,152,1905,1982,no
123.20,Kukaiau (5000),19.93027953,-155.3472253,5000,UNKNOWN,No,0,State,Discontinued,31,1902,1905,no
124.00,Keanakolu,19.91694715,-155.3388922,5280,DIV OF FTRY,Yes,11,"State, State/NCDC",Discontinued,867,1905,1998,no
124.10,Keanakolu,19.91528063,-155.3355589,5280,PARKER RANCH,Yes,12,State,Discontinued,696,1915,1981,no
124.20,Keanakolu Camp,19.91750266,-155.3397255,5280,STATE DIV FTRY,No,0,State,Discontinued,211,1965,1983,no
125.00,Hopuwai,19.84695227,-155.3372257,6425,PARKER RANCH,Yes,12,State,Discontinued,130,1936,1947,no
125.10,Pua Akala,19.78695606,-155.3305599,6300,SHIPMAN WH,Yes,12,State,Discontinued,524,1919,1976,no
125.12,Pua Akala,19.8,-155.3333333,6394,SCAN,No,0,SCAN,Current,51,2005,2009,no
126.00,Maulua/Kaulua,19.88861614,-155.3072261,5140,KUKAIAU RANCH,Yes,12,"NCDC, State, State/NCDC",Discontinued,620,1918,1972,no
126.10,Maulua 6200,19.87361694,-155.3372256,6180,KUKAIAU RANCH,No,0,State,Discontinued,207,1953,1972,no
127.00,Puu Loa,19.98360937,-155.330559,2550,KUKAIAU RANCH,Yes,12,State,Current,871,1918,2008,no
127.10,HUMUULA,19.94861184,-155.3122261,3600,STATE DIV OF FTRY,No,0,State,Discontinued,11,1950,1950,no
127.20,Kukaiau (3400),19.98027628,-155.330559,3400,UNKNOWN,No,0,State,Discontinued,132,1895,1905,no
127.30,Keanakolu Trail,19.93694597,-155.2997262,3800,USDA FRUIT FLY L,No,0,State,Discontinued,12,1950,1950,no
127.40,Coffee Pond,19.98749801,-155.3566695,2800,KUKAIAU RANCH,No,0,State,Discontinued,82,1966,1973,no
128.00,Nauhi Gulch,19.85528545,-155.2972263,5160,STATE DIV FTRY,Yes,12,"NCDC, State, State/NCDC",Discontinued,348,1925,1953,no
129.00,Hakalau,19.82111111,-155.3305556,6400,RAWS,No,0,RAWS,Current,67,2003,2009,no
130.00,Ookala Mauka,19.98360902,-155.2922266,1780,LAUPAHOEHOE SUG,Yes,12,State,Discontinued,785,1928,1994,no
130.10,Field 6,19.99527425,-155.2722269,900,LAUPAHOEHOE SUG,No,0,State,Discontinued,124,1951,1961,no
130.20,Field 439,20.01693963,-155.3222258,900,DAVIS HAMAKUA SUGAR,Yes,12,State,Discontinued,357,1951,1994,no
131.00,Island Dairy,20,-155.2833333,1160,SCAN,No,0,SCAN,Current,49,2005,2009,no
132.00,Kihalani,19.95860965,-155.2422268,1500,LAUPAHOEHOE SUG,Yes,12,State,Discontinued,534,1944,1989,no
132.10,Kaiaakea,19.95194249,-155.1905609,445,LAUPAHOEHOE SUG,No,0,State,Discontinued,132,1967,1992,no
133.00,Papaaloa Office,19.97694031,-155.2205601,262,LAUPAHOEHOE SUG,Yes,12,State,Discontinued,1045,1905,1993,no
133.10,Laupahoehoe,19.98027372,-155.2305601,452,BARNARD EW,No,0,State,Discontinued,384,1892,1942,no
133.20,Laupahoehoe-Rhea,19.99343,-155.24723,358,RHEA TR,No,0,State,Discontinued,430,1891,1928,no
133.30,Laupahoehoe P.D.*,19.98,-155.23,384,Hydronet,No,0,Hydronet,Current,213,1991,2008,no
134.00,Makahanaloa 2,19.81695524,-155.1922288,2675,STATE DIV FTRY,Yes,12,"NCDC, State, State/NCDC",Discontinued,240,1934,1953,no
135.00,Hakalau Mauka,19.88361655,-155.1655628,1150,PEPEEKEO SUGAR,Yes,12,"NCDC, State, State/NCDC",Discontinued,882,1905,1979,no
136.00,Honomu (1750),19.83862075,-155.160563,1750,STATE DIV FTRY,Yes,11,State,Discontinued,600,1926,1976,no
137.00,Honohina,19.92194566,-155.1538961,300,PEPEEKEO SUGAR,Yes,12,"NCDC, State, State/NCDC",Discontinued,1182,1894,1993,no
137.10,Puuohua Macey,19.92361223,-155.1938946,1050,MACEY BB,No,0,State,Discontinued,37,1902,1905,no
137.20,Honohina Middle,19.93527757,-155.1638955,275,PEPEEKEO SUGAR,No,0,State,Discontinued,87,1905,1912,no
137.30,Honohina Mauka,19.90778068,-155.1750068,1160,PEPEEKEO SUGAR,Yes,12,State,Discontinued,332,1964,1991,no
138.00,Honomu Mauka Low,19.84862022,-155.1408416,1100,PEPEEKEO SUGAR,Yes,12,"NCDC, State, State/NCDC",Discontinued,976,1911,1992,no
138.10,Honomu Mauka Hi,19.84695362,-155.1472302,1200,PEPEEKEO SUGAR,Yes,6,State,Discontinued,330,1911,1938,no
140.00,Pepeekeo A&F,19.8302882,-155.1488967,1550,STATE DIV FTRY,Yes,11,"NCDC, State, State/NCDC",Discontinued,475,1926,1966,no
140.10,Papaikou Mauka,19.78695738,-155.1388973,1400,MAU KEA SUGAR,Yes,12,"NCDC, State, State/NCDC",Discontinued,732,1926,1986,no
141.00,Pepeekeo Mauka,19.84195432,-155.1222314,870,PEPEEKEO SUGAR,No,0,State,Discontinued,170,1948,1963,no
142.00,Hakalau,19.89861522,-155.1272305,175,PEPEEKEO SUGAR,Yes,12,"NCDC, State, State/NCDC",Discontinued,1175,1892,1993,no
143.00,Honomu Makai,19.86389691,-155.1144537,350,PEPEEKEO SUG,Yes,12,"NCDC, State, State/NCDC",Discontinued,514,1921,1963,no
144.00,Pepeekeo Makai,19.84195477,-155.0855658,100,PEPEEKEO SUGAR,Yes,12,"NCDC, State, State/NCDC",Discontinued,986,1890,1972,no
144.10,Papaikou Makai,19.78362447,-155.0922318,200,MAU KEA SUGAR,Yes,12,"NCDC, State, State/NCDC",Current,1251,1899,2007,yes
144.20,Honomu (300),19.86361918,-155.1138982,300,HONOMU SUGAR,No,0,State,Discontinued,91,1892,1899,no
144.30,Honomu (950),19.8636189,-155.1330641,950,HONOMU SUGAR,No,0,State,Discontinued,76,1892,1898,no
144.40,Papaikou,19.78029123,-155.0972317,350,ROGARS WH,No,0,State,Discontinued,47,1886,1889,no
144.50,Honomu Seaside,19.86306393,-155.0977877,130,PEPEEKEO SUGAR,Yes,11,State,Discontinued,500,1949,1992,no
144.60,Andrade,19.83695486,-155.1088986,650,PEPEEKEO SUGAR,Yes,12,State,Discontinued,524,1949,1992,no
144.70,Onomea,19.81528962,-155.1005653,460,ONOMEA SUGAR,No,0,State,Discontinued,10,1950,1950,no
145.00,Wainaku Camp 2,19.74195947,-155.1072312,500,MAUNA KEA SUGAR,Yes,12,State,Discontinued,481,1948,1992,no
147.00,Beach,20.07416213,-155.8588817,10,KAHUA RANCH,Yes,11,State,Discontinued,687,1931,1999,no
147.10,Middle Pen,20.10027112,-155.8322151,1380,KAHUA RANCH,Yes,11,"NCDC, State, State/NCDC",Current,858,1931,2007,no
147.20,PAHINAHINA,19.09254822,-155.8477671,0,KAHUA RANCH,No,0,State,Discontinued,134,1976,1987,no
148.00,Kawaihae,20.04194112,-155.8338838,50,KAHUA RANCH,Yes,10,State,Discontinued,640,1937,1999,no
148.10,Puu Hanai,20.0580508,-155.8072174,1290,KAHUA RANCH,Yes,10,State,Discontinued,476,1937,1976,no
159.00,Mahukona,20.18359897,-155.9005432,10,TERMI AGENT MAHU,Yes,11,"NCDC, State/NCDC",Discontinued,524,1912,1955,no
159.10,Honoipu,20.24359253,-155.8805429,260,KAHUA RANCH,No,0,State,Discontinued,318,1942,1968,no
159.20,Upolu Point,20.25025779,-155.8869314,40,USCG,Yes,12,"NCDC, State/NCDC",Discontinued,426,1956,1992,no
159.40,Pr Pasture #32,20.20970749,-155.8866542,400,KOHALA SUGAR,No,0,State,Discontinued,41,1964,1968,no
160.00,Station 3,20.25525769,-155.8722096,200,KOHALA SUGAR,Yes,12,State,Discontinued,429,1940,1975,no
160.10,Upolu Point Ap,20.26525609,-155.8572096,90,HAWN AIRLINES,No,0,State,Discontinued,113,1939,1956,no
160.20,Station 28,20.24192648,-155.87221,430,KOHALA SUGAR,No,0,State,Discontinued,81,1950,1957,no
160.30,Upolu Airport*,20.26,-155.86,111,Hydronet,No,0,Hydronet,Current,185,1991,2007,no
161.00,Puakea,20.23192759,-155.8705435,570,PARKER RANCH,Yes,11,"NCDC, State, State/NCDC",Discontinued,940,1902,1981,no
162.00,Station 2,20.25359135,-155.8605433,300,KOHALA SUGAR,No,0,State,Discontinued,53,1948,1952,no
162.10,Kokoiki,20.24025983,-155.8555438,570,KAHUA RANCH,No,0,State,Discontinued,232,1942,1961,no
162.20,Station 25,20.23859325,-155.8438777,625,KOHALA SUGAR,No,0,State,Discontinued,117,1950,1968,no
163.00,Station 15,20.22526153,-155.8588774,850,KOHALA SUGAR,Yes,12,State,Discontinued,555,1925,1971,no
164.00,Station 9,20.21026252,-155.8372119,1390,KOHALA SUGAR,Yes,12,State,Discontinued,564,1925,1971,no
164.10,Puakea 13 #33,20.20165266,-155.8547112,1160,KOHALA SUGAR,No,0,State,Discontinued,25,1966,1968,no
164.20,Station 34,20.20859638,-155.8505446,1490,KOHALA SUGAR,No,0,State,Discontinued,33,1968,1971,no
165.00,Station 4,20.2535914,-155.8405441,300,KOHALA SUGAR,No,0,State,Discontinued,190,1948,1963,no
166.00,Station 14,20.26192353,-155.8388773,125,KOHALA SUGAR,Yes,12,State,Discontinued,609,1925,1975,no
167.00,Puuokumau,20.19526362,-155.833879,1800,KOHALA SUGAR,Yes,11,"NCDC, State, State/NCDC",Discontinued,555,1925,1971,no
168.00,Hawi,20.23692665,-155.8272119,600,KOHALA SUGAR,Yes,12,"NCDC, State/NCDC",Current,1322,1888,2007,yes
168.10,Station 26,20.23026042,-155.8138794,650,KOHALA SUGAR,No,0,State,Discontinued,25,1950,1952,no
170.00,Puuhue,20.17026583,-155.832213,1890,PARKER RANCH,Yes,12,State,Discontinued,589,1932,1981,no
171.00,Station 5,20.2435927,-155.8238787,425,KOHALA SUGAR,No,0,State,Discontinued,53,1948,1952,no
172.00,Station 17,20.20692935,-155.8338788,1450,KOHALA SUGAR,No,0,State,Discontinued,171,1923,1949,no
173.00,Station 16,20.23692653,-155.8155458,450,KOHALA SUGAR,Yes,10,State,Discontinued,707,1892,1971,no
174.00,Station 6,20.25192483,-155.8072126,190,KOHALA SUGAR,No,0,State,Discontinued,190,1948,1963,no
174.10,Kohala Parsonage,20.24692562,-155.8138791,350,OSTROM REV A,No,0,State,Discontinued,129,1890,1900,no
174.30,Kapua Gulch #31,20.25248038,-155.8119346,174,KOHALA SUGAR,No,0,State,Discontinued,89,1963,1971,no
175.10,Kohala Mission,20.2252605,-155.7922137,535,BOND ESTATE,Yes,6,"NCDC, State/NCDC",Current,1317,1890,2007,no
176.00,Kohala Maulili,20.20859492,-155.7855476,960,KOHALA SUGAR,Yes,10,"NCDC, State/NCDC",Discontinued,813,1908,1975,no
176.10,Kehena Res,20.16359891,-155.800548,2520,KOHALA SUGAR,Yes,12,"NCDC, State/NCDC",Discontinued,310,1942,1968,no
176.20,Homestead Plant,20.20859568,-155.8272124,1350,HC AUSTIN,No,0,State,Discontinued,129,1919,1929,no
176.30,Kahua Ranch Hqtrs*,20.12,-155.78,3269,KAHUA RANCH,Yes,10,"Hydronet, State",Current,266,1977,2008,no
177.00,Station 8,20.24025866,-155.7722141,100,KOHALA SUGAR,No,0,State,Discontinued,53,1948,1952,no
178.00,Headquarters,20.12610167,-155.7888826,3240,KAHUA RANCH,Yes,12,State,Discontinued,768,1931,1999,no
178.10,Station 21,20.19192986,-155.8055471,1850,KOHALA SUGAR,No,0,State,Discontinued,71,1946,1952,no
178.11,#4 WB-Kahua,20.12554592,-155.7774941,3825,KAHUA RANCH,No,0,State,Discontinued,275,1966,1992,no
178.20,Twin Reservoir,20.18359693,-155.7872148,1880,KOHALA DITCH,No,0,State,Discontinued,374,1940,1971,no
178.30,Kalope,20.07527132,-155.7638841,3400,KAHUA RANCH,Yes,11,State,Discontinued,624,1937,1998,yes
178.40,Halawa,20.23025914,-155.7638813,450,PATTON MRS WC,No,0,State,Discontinued,54,1904,1908,no
178.50,Puuhue Ranch,20.17193242,-155.8338796,1854,WOODS SP,No,0,State,Discontinued,70,1902,1907,no
178.60,Waikanonoula,20.12526817,-155.7777719,3830,KAHUA RANCH,No,0,State,Discontinued,419,1958,1998,no
178.70,Kalahikiola,20.14693375,-155.8038817,2760,KAHUA RANCH,No,0,State,Discontinued,322,1963,1997,no
178.80,Puu Aiea,20.12193553,-155.7994379,3050,KAHUA RANCH,No,0,State,Discontinued,370,1962,1999,no
178.90,Puu Kaakihi,20.13665693,-155.8122148,2520,KAHUA RANCH,No,0,State,Discontinued,233,1968,1997,no
179.00,Niulii,20.22192578,-155.7438821,75,KOHALA SUGAR,Yes,12,"NCDC, State/NCDC",Discontinued,1089,1884,1975,no
179.10,Kohala,20.23025973,-155.7788808,310,KOHALA SUGAR,Yes,9,"NCDC, State/NCDC",Discontinued,987,1889,1971,no
180.10,Station 18,20.21526056,-155.7655482,425,KOHALA SUGAR,Yes,9,State,Discontinued,459,1933,1971,no
181.00,Makapala Nursery,20.18359648,-155.7622156,1620,STATE DIV FTRY,Yes,12,"NCDC, State/NCDC",Discontinued,329,1925,1952,no
181.10,Honokane,20.14526612,-155.7305504,800,KOHALA DITCH,Yes,12,"NCDC, State/NCDC",Discontinued,825,1905,1975,yes
181.20,Kehena,20.11860157,-155.7488837,3840,KOHALA DITCH,No,0,State,Discontinued,745,1912,1975,no
182.00,Station 12,20.19526187,-155.7505491,1000,KOHALA SUGAR,Yes,9,State,Discontinued,339,1943,1971,no
182.10,Awini,20.16859722,-155.7122172,1870,KOHALA DITCH,Yes,5,"NCDC, State/NCDC",Discontinued,824,1905,1975,yes
183.00,Station 19,20.19526181,-155.7472159,940,KOHALA SUGAR,No,0,State,Discontinued,53,1948,1952,no
183.10,Puu Ahia,20.09193666,-155.7455507,4360,KAHUA RANCH,No,0,State,Discontinued,560,1942,1990,no
183.20,East Honokane,20.10693559,-155.7105514,4240,KOHALA DITCH,Yes,12,"NCDC, State, State/NCDC",Discontinued,570,1925,1974,yes
183.30,Station 30,20.20359461,-155.7572154,790,KOHALA SUGAR,No,0,State,Discontinued,27,1966,1968,no
183.80,KEAWEWAI KOHALA,20.08721471,-155.7316622,4700,OLOHANA CORP,No,0,State,Discontinued,39,1965,1968,no
183.90,Keawewai Fort Fn,20.08749249,-155.7361066,4710,DOWALD,No,0,State,Discontinued,179,1969,1983,no
184.00,KAWAIHAE 11,20.05193976,-155.7605514,2640,PARKER RANCH,No,0,State,Discontinued,478,1936,1981,no
184.10,Kaukini,20.15859804,-155.6922177,2040,KOHALA DITCH,Yes,11,"NCDC, State, State/NCDC",Discontinued,558,1924,1971,no
184.20,Awini Ranch,20.18026269,-155.7138836,1100,AWINI RANCH,No,0,State,Discontinued,89,1896,1905,no
184.30,KUKUI STREAM,20.15165429,-155.6674961,1940,USGS,No,0,State,Discontinued,48,1960,1967,no
185.00,Kawainui Upper,20.08360377,-155.6772192,4080,HAWN IRRIG,No,0,"State, State/NCDC",Discontinued,493,1907,1948,no
185.10,KAIMU,20.13693353,-155.6588854,2440,USGS,No,0,State,Discontinued,27,1948,1952,no
185.20,WAIILIKAHI,20.12193485,-155.6605522,2970,USGS,No,0,State,Discontinued,38,1953,1960,no
185.30,Honokane-P Ranch,20.13026775,-155.6305525,750,PARKER RANCH,No,0,State,Discontinued,22,1936,1938,no
185.40,Upp Hamakua Dit,20.08443705,-155.6749971,4020,USGS,No,0,State,Discontinued,255,1964,1991,no
185.50,Waimanu,20.13443391,-155.639719,15,USGS,No,0,USGS,Discontinued,9,1992,1993,no
185.70,Kawainui,20.08533333,-155.6811667,4060,USGS,No,0,USGS,Current,84,2002,2009,no
187.10,WAIMANU,20.11360207,-155.6588858,3220,USGS,No,0,State,Discontinued,26,1948,1952,no
187.20,WAIILIKAHI MAUKA,20.10999106,-155.6755522,3850,USGS,No,0,State,Discontinued,43,1953,1960,no
189.00,Waimea Plain,20.01666667,-155.6,3039,SCAN,No,0,SCAN,Current,51,2005,2009,no
190.00,Alakahi Upper,20.070081,-155.669952,3860,HAWN IRRIG,Yes,5,"NCDC, State/NCDC",Discontinued,627,1913,2001,no
190.11,Alakahi,20.06943785,-155.6697196,3570,DOWALD,No,0,State,Discontinued,266,1961,1983,no
190.40,Keanuiomano Str,20.02749611,-155.6980529,2410,USGS,No,0,State,Discontinued,266,1968,1991,no
190.50,Waikoloa Res,20.03805076,-155.6755531,3310,DOWALD,No,0,State,Discontinued,380,1969,2001,no
190.70,Kohakohau 8,20.02638493,-155.6869419,2560,USGS,No,0,State,Discontinued,42,1976,1979,no
190.80,Alakahi-P Ranch,20.07332656,-155.6758305,4040,PARKER RANCH,No,0,State,Discontinued,135,1970,1981,no
190.90,High Pressure,20.08138167,-155.686108,4250,PARKER RANCH,No,0,State,Discontinued,124,1970,1981,no
191.00,Waimea-Kohala Ap,19.99694201,-155.6738868,2665,HAWN AIRLINES,No,0,State,Discontinued,214,1953,1971,no
191.10,Lalamilo Fld Off,20.01083015,-155.6763867,2620,DOWALD,Yes,12,"NCDC, State, State/NCDC",Current,502,1965,2007,no
191.30,Lalamilo Reserv,20.01305219,-155.6713867,2646,DOWALD,No,0,State,Discontinued,121,1968,1978,no
191.40,Lalamilo Farm,20.01916302,-155.6769421,2620,UH EXP STA,Yes,11,State,Discontinued,299,1963,1991,no
191.50,Lalamilo 24,20.005275,-155.6916643,2490,DOWALD,No,0,State,Discontinued,467,1962,2001,no
191.60,Lalamilo 35,20.01944098,-155.6958308,2380,DOWALD,No,0,State,Discontinued,465,1962,2001,no
192.00,Waimea,20.02527342,-155.6588867,2750,PARKER RANCH,Yes,12,"NCDC, State/NCDC",Discontinued,717,1891,1950,no
192.10,Puu Kapu A&F,20.03027288,-155.6405534,2870,STATE DIV FTRY,Yes,12,"NCDC, State/NCDC",Discontinued,420,1932,1967,no
192.20,Kamuela,20.02027391,-155.66722,2670,PARKER RANCH,Yes,10,"NCDC, State, State/NCDC",Discontinued,735,1919,1980,no
192.30,Range 1,19.99694241,-155.7138864,2300,PARKER RANCH,Yes,10,State,Discontinued,142,1936,1981,no
192.40,Holoholuku 1,19.97360943,-155.635554,3265,PARKER RANCH,No,0,State,Discontinued,94,1936,1943,no
192.60,Waimea Res,20.04860537,-155.6222202,2970,DOWALD,Yes,12,State,Discontinued,494,1960,2001,no
192.70,Kamuela Upper*,20.03,-155.67,3112,Hydronet,No,0,Hydronet,Current,198,1992,2008,no
193.00,Kawainui Lower,20.08360384,-155.6438866,1080,HAWN IRRIG,Yes,6,"NCDC, State/NCDC",Discontinued,981,1910,1994,yes
194.00,Alakahi Lower,20.07360432,-155.6388867,840,HAWN IRRIG,Yes,7,"NCDC, State, State/NCDC",Discontinued,979,1910,1994,no
194.10,Waikoloa Str,20.05193868,-155.6638866,3580,USGS,No,0,State,Discontinued,168,1948,1971,no
194.20,Kohala Mt Pipe L,20.08027061,-155.6472199,3700,PARKER RANCH,No,0,State,Discontinued,34,1914,1917,no
195.00,Koiawe Upper,20.05193846,-155.6438869,3350,HAWN IRRIG,Yes,10,"State, State/NCDC",Discontinued,439,1912,1948,no
195.10,Koiawe,20.05721609,-155.634998,3200,DOWALD,No,0,State,Discontinued,174,1964,1979,no
196.00,Koiawe Lower,20.07527098,-155.6305534,720,HAWN IRRIG,Yes,7,"NCDC, State, State/NCDC",Discontinued,989,1910,1994,yes
197.00,Waima Lower,20.06527141,-155.6238869,980,HAWN IRRIG,Yes,5,"NCDC, State, State/NCDC",Discontinued,926,1913,1990,no
198.00,Muliwai,20.13193441,-155.6138861,1290,STATE DIV FTRY,No,0,State,Discontinued,164,1931,1967,no
199.00,Kukuihaele Hic,20.11526922,-155.5822202,980,HONOKAA SUGAR,Yes,12,"NCDC, State/NCDC",Discontinued,1045,1905,1994,no
200.00,Puu Alala,20.05860505,-155.6188869,2880,HAWN IRRIG,Yes,10,State/NCDC,Discontinued,397,1915,1948,no
201.00,Puu Kapu Res 3,20.03693958,-155.5988871,2820,HAWN IRRIG,No,0,"NCDC, State/NCDC",Discontinued,334,1921,1949,no
201.20,Mealani Farm,20.038604,-155.608612,2700,HAES,Yes,11,State,Discontinued,295,1964,1994,no
201.30,Kamuela 1*,20.04,-155.61,2880,Hydronet,No,0,Hydronet,Current,215,1991,2008,no
202.00,Lalakea,20.088604,-155.5872204,1955,HONOKAA SUGAR,Yes,10,State,Discontinued,905,1917,1993,no
202.10,Field 114,20.09693675,-155.5705539,1565,HONOKAA SUGAR,No,0,State,Discontinued,461,1952,1993,no
203.00,Second Gate,20.03860634,-155.5872205,2860,PARKER RANCH,Yes,10,State,Discontinued,853,1910,1981,no
203.10,Kamoku,20.04360641,-155.5588876,2800,HAWN HOMELANDS,No,0,State,Discontinued,342,1976,2006,no
203.20,Puu Pulehu Res,20.03943944,-155.6005537,2760,DOWALD,Yes,12,State,Discontinued,299,1976,2001,no
203.30,Puukapu FC Dam,20.03916168,-155.5999982,2839,DOWALD,No,0,State,Discontinued,202,1982,1998,no
204.00,Puu Kikoni,20.00527497,-155.5772207,3120,PARKER RANCH,Yes,12,State,Discontinued,351,1920,1949,no
204.20,Puu Kapu,19.99833055,-155.5997205,3107,HAWN HOMELANDS,No,0,State,Discontinued,338,1976,2006,no
205.00,Kukuihaele Vill,20.11693552,-155.5672204,750,HONOKAA SUGAR,Yes,10,State,Discontinued,806,1891,1964,no
206.00,Kukuihaele Landg,20.12526779,-155.5588871,300,DAVIS HAMAKUA SUGAR,Yes,12,"NCDC, State, State/NCDC",Discontinued,1245,1891,1994,no
207.00,Ahualoa Homestds,20.04916167,-155.5105551,2550,HAWN IRRIG,Yes,12,"NCDC, State/NCDC",Discontinued,439,1912,1948,no
208.00,Waikoloa Stream,20.10249152,-155.5444431,975,HONOKAA SUGAR,No,0,State,Discontinued,72,1965,1970,no
209.00,Anuenue,20.09193655,-155.5311101,1470,HONOKAA SUGAR,No,0,State,Discontinued,167,1965,1993,no
210.00,Kapulena,20.09776916,-155.5188882,920,HONOKAA SUGAR,Yes,12,State,Discontinued,698,1917,1975,no
211.00,Reservoir 13,20.08304812,-155.5138885,1515,HONOKAA SUGAR,No,0,State,Discontinued,302,1917,1964,no
211.20,Fld 11 Honokaa,20.07304887,-155.5038889,1840,SCS-ARS,No,0,State,Discontinued,46,1972,1975,no
212.00,First Gate,20.04860618,-155.5138884,2530,PARKER RANCH,Yes,11,State,Discontinued,839,1910,1981,no
212.10,Nienie Lee,20.0419399,-155.510555,2745,HHL,No,0,State,Discontinued,339,1976,2005,no
213.00,Kawela,20.105095,-155.49683,390,DAVIS HAMAKUA SUGAR,Yes,12,State,Discontinued,917,1917,1994,no
213.10,New Stable,20.09026947,-155.5000003,1125,HONOKAA SUGAR,No,0,State,Discontinued,159,1965,1993,no
214.00,Haina,20.09193527,-155.4738903,460,HONOKAA SUGAR,Yes,10,"NCDC, State, State/NCDC",Discontinued,1279,1885,1994,no
215.00,Honokaa Town,20.08026947,-155.4672231,1070,HONOKAA SUGAR,Yes,11,"NCDC, State, State/NCDC",Current,920,1917,2007,no
215.10,Honokaa Mauka,20.07388088,-155.4588894,1180,HAWN TEL CO,Yes,8,"NCDC, State/NCDC",Discontinued,456,1902,1939,no
215.20,Honokaa,20.08027035,-155.4972225,1900,RICHART MISS N,No,0,State,Discontinued,49,1897,1901,no
215.30,Ahualoa,20.07138223,-155.4958336,1835,HONOKAA SUGAR,No,0,State,Discontinued,177,1965,1994,no
215.50,Honokaa*,20.07,-155.46,1270,Hydronet,No,0,Hydronet,Current,208,1991,2008,no
216.00,Paauhau-P Ranch,20.05527151,-155.4638889,1860,PARKER RANCH,Yes,11,State,Discontinued,856,1910,1981,no
216.10,Paauhau-Grieg,20.06360366,-155.4472223,1200,GRIEG TW,No,0,State,Discontinued,122,1890,1901,no
216.20,Paauhau Mauka,20.0686032,-155.4455557,1150,PAAUHAU SUGAR,No,0,State,Discontinued,67,1905,1910,no
216.30,Airport-P Sug,20.04193892,-155.447222,2075,PAAUHAU SUGAR,Yes,12,State,Discontinued,424,1957,1994,no
216.40,Pma Plant,20.06721444,-155.446389,1250,PAAUHAU SUGAR,Yes,11,State,Discontinued,485,1939,1994,no
216.50,Field 003,20.07471374,-155.443056,920,PAAUHAU SUGAR,No,0,State,Discontinued,165,1965,1994,no
216.70,Field 052,20.05249432,-155.4791666,2200,PAAUHAU SUGAR,No,0,State,Discontinued,24,1969,1970,no
217.00,Paauhau-P Sugar,20.08360173,-155.4372236,400,PAAUHAU SUGAR,Yes,12,"NCDC, State/NCDC",Discontinued,1257,1890,1994,no
218.00,Hamakua Mill,20.05027003,-155.3588915,180,HAMAKUA MILL,Yes,12,State,Discontinued,689,1936,1994,no
218.10,PAAUILO,20.063266,-155.3805576,270,HAMAKUA MILL,No,0,State,Discontinued,89,1915,1923,no
218.20,Field 328,20.06026977,-155.3872241,345,DAVIS HAMAKUA SUGAR,No,0,State,Discontinued,506,1948,1994,no
218.30,FIELD 118,20.0649918,-155.3944462,200,PAAUHAU SUGAR,No,0,State,Discontinued,105,1985,1994,no
219.00,Kukuihaele,20.1,-155.5166667,947,SCAN,No,0,SCAN,Current,48,2005,2009,no
220.00,Pma,20.06860319,-155.4438891,1160,PAAUHAU SUGAR,No,0,State,Discontinued,111,1948,1958,no
220.10,Kalopa-P Sugar,20.05193765,-155.4038901,900,PAAUHAU SUGAR,No,0,State,Discontinued,98,1905,1913,no
220.20,Pohakea,20.03693908,-155.4172228,1600,BLACOW CR,No,0,State,Discontinued,41,1904,1907,no
220.30,Kalopa,20.05193767,-155.4055566,900,PAAUHAU SUGAR,Yes,12,State,Discontinued,437,1956,1994,no
220.50,Field 015,20.06749174,-155.4008348,300,PAAUHAU SUGAR,No,0,State,Discontinued,96,1963,1970,no
221.00,Office (Paauilo),20.03860487,-155.3688913,800,HAMAKUA MILL,Yes,10,"NCDC, State, State/NCDC",Current,1257,1903,2007,no
221.10,Field 9,20.02916121,-155.3605581,1000,HAMAKUA MILL,No,0,State,Discontinued,164,1955,1968,no
221.20,Field 30 (1455),20.03360574,-155.3938905,1455,HAMAKUA MILL,No,0,State,Discontinued,461,1955,1994,no
221.30,Hamakua Makai,20.04193799,-155.3738912,750,HSPA,Yes,12,State,Discontinued,602,1932,1982,yes
221.40,Field 30 (2340),20.00749664,-155.3883351,2340,HAMAKUA MILL,No,0,State,Discontinued,113,1962,1972,no
221.50,Hamakua,20.016386,-155.388056,2060,UHAES,No,0,State,Discontinued,185,1975,1990,no
222.00,Kukaiau-H Mill,20.02693892,-155.3422253,840,HAMAKUA MILL,Yes,12,"NCDC, State, State/NCDC",Discontinued,1196,1895,1994,no
222.10,Coffee Plant,20.01360698,-155.3472253,1600,KUKAIAU RANCH,No,0,State,Discontinued,131,1895,1905,no
222.20,Kainehe,20.02693918,-155.3577805,1475,BLACOW CR,No,0,State,Discontinued,165,1894,1907,no
222.30,Korean Camp,20.00860738,-155.3438921,1750,HAMAKUA MILL,No,0,State,Discontinued,228,1920,1938,no
222.40,Paauilo-Notley,20.04027122,-155.3625026,250,NOTLEY C,No,0,State,Discontinued,131,1892,1902,no
222.50,Station 39,20.00027466,-155.3272258,1900,HAMAKUA MILL,No,0,State,Discontinued,211,1920,1938,no
222.60,Sugahara Camp,20.04027059,-155.3372254,260,HAMAKUA MILL,Yes,12,"NCDC, State/NCDC",Discontinued,589,1892,1941,no
222.70,Field 116,20.03166021,-155.325559,440,HAMAKUA MILL,No,0,State,Discontinued,440,1955,1992,no
223.00,Ookala,20.01527222,-155.2838932,430,LAUPAHOEHOE SUG,Yes,12,"NCDC, State, State/NCDC",Discontinued,1245,1891,1994,no
223.10,FIELD 116,20.01666109,-155.2886153,0,HAMAKUA MILL,No,0,State,Discontinued,105,1985,1994,no
248.00,Kanahena,20.62681283,-156.4121829,850,ULUPALAKUA RANCH,Yes,12,State,Discontinued,774,1925,1996,yes
248.10,Papaka,20.61459175,-156.3999612,980,ULUPALAKUA RANCH,Yes,12,State,Discontinued,430,1955,1996,no
248.20,Keoneoio,20.60014856,-156.4199605,10,ULUPALAKUA RANCH,Yes,4,State,Discontinued,177,1971,1987,no
249.00,Makena,20.64625562,-156.4424595,10,ULUPALAKUA RANCH,No,0,State,Discontinued,300,1965,1996,no
249.10,Makena Golf Cors,20.6420893,-156.4388485,100,MAKE GC,Yes,7,"NCDC, State/NCDC",Current,304,1982,2007,no
250.00,Ulupalakua Ranch,20.648174,-156.398497,1900,ULUPALAKUA RANCH,Yes,12,"NCDC, State, State/NCDC",Current,1091,1905,2007,no
250.20,Ulupalakua Ranch*,20.65,-156.4,1908,Hydronet,No,0,Hydronet,Current,214,1991,2008,no
251.00,Kanaio,20.63125696,-156.3591294,2840,ULUPALAKUA RANCH,No,0,State,Discontinued,16,1965,1967,no
251.10,Luapelani,20.63764525,-156.3771843,2880,ULUPALAKUA RANCH,Yes,11,State,Discontinued,313,1967,1996,no
252.00,Auwahi,20.62014695,-156.3288528,2060,ULUPALAKUA RANCH,Yes,12,"NCDC, State, State/NCDC",Discontinued,832,1925,1998,no
253.00,Ahuwahi,20.64422222,-156.3420556,3831.04,HaleNet,Yes,9,HaleNet,Current,95,2001,2009,no
254.00,Kahikinui,20.62014712,-156.2688556,1400,ULUPALAKUA RANCH,Yes,9,State,Discontinued,496,1925,1966,no
254.10,Manukahi,20.64070062,-156.2905213,3300,ULUPALAKUA RANCH,Yes,12,State,Discontinued,140,1955,1966,no
254.20,Kaulaula,20.64264486,-156.312187,3800,ULUPALAKUA RANCH,Yes,9,State,Discontinued,295,1967,1996,no
255.00,Kepuni Gulch,20.6195,-156.2518889,740,USGS,Yes,11,"State, USGS",Current,536,1964,2009,no
256.00,Waiopai Ranch,20.63014664,-156.2038591,220,HALEAKALA RANCH,Yes,7,"NCDC, State, State/NCDC",Current,1098,1905,2007,no
256.10,Puu Kao,20.66680944,-156.2188587,3800,HALEAKALA RANCH,No,0,State,Discontinued,496,1953,2003,no
256.20,Waiopai Ranch 1,20.63292404,-156.212192,620,HALEAKALA RANCH,Yes,1,State,Current,492,1897,2008,no
257.00,Nuu,20.6268139,-156.1738606,25,KAUPO RANCH,Yes,8,State,Discontinued,554,1950,2003,no
257.10,Nakula,20.65514412,-156.1921934,1570,KAUPO RANCH,Yes,5,State,Discontinued,342,1959,1988,no
257.20,Keeke,20.64681173,-156.1705276,850,KAUPO RANCH,Yes,12,State,Discontinued,470,1959,2003,no
257.30,Red Tank,20.63348,-156.1455286,515,KAUPO RANCH,No,0,State,Discontinued,433,1959,2003,no
257.40,Store,20.63653566,-156.1219188,281,KAUPO RANCH,Yes,7,State,Discontinued,424,1961,2003,no
258.00,Kipahulu,20.65347899,-156.0555337,260,HA RANCH,Yes,12,"NCDC, State/NCDC",Discontinued,868,1909,1981,no
258.10,Kipahulu,20.65514546,-156.0555337,310,KIPAHULU SUGAR,No,0,State,Discontinued,104,1898,1906,no
258.20,Kaupo Mokulau,20.64347946,-156.1071974,285,JS GARNETT,No,0,State,Discontinued,94,1897,1905,no
258.30,Kaupo 500,20.6451459,-156.1071975,500,USDA FRUIT FLY LAB,No,0,State,Discontinued,57,1954,1959,no
258.40,Kukuiula Gulch,20.65097896,-156.0755325,90,USGS,No,0,State,Discontinued,46,1964,1968,no
258.50,Palikea,20.66792039,-156.3905171,1040,HANA RANCH,No,0,State,Discontinued,13,1977,1978,no
258.60,Oheo (Seven Pools),20.662925,-156.04248,80,HALEAKALA TL PK,Yes,12,"NCDC, State, State/NCDC",Current,369,1976,2007,no
259.00,Kaupo Ranch Hq,20.64681202,-156.1355293,1020,KAUPO RANCH,Yes,6,State,Discontinued,581,1950,2003,no
259.10,Naholoku,20.66181062,-156.1388628,2300,KAUPO RANCH,Yes,7,State,Discontinued,462,1959,2002,no
259.20,Panileihulu,20.67514273,-156.1355297,3570,KAUPO RANCH,Yes,7,"NCDC, State, State/NCDC",Discontinued,511,1960,2005,no
259.30,Paliku,20.7168051,-156.1405298,6360,HALEAKALA NATL PARK,Yes,12,State,Discontinued,418,1966,2005,no
259.40,Central Crater,20.72208203,-156.1985824,7320,HALEAKALA NATL PARK,Yes,11,State,Discontinued,366,1967,2005,no
259.50,Holua Cabin,20.74152451,-156.2180253,7000,HALEAKALA NATL PARK,Yes,12,State,Discontinued,403,1964,1999,no
259.60,HANA FOR RES 668,20.70513966,-156.1471962,6680,HALEAKALA NATL PK,No,0,State,Discontinued,4,1976,1977,no
259.70,HANA FOR RES 612,20.70513966,-156.1471962,6120,HALEAKALA NATL PK,No,0,State,Discontinued,2,1976,1976,no
259.80,HANA FOR RES 546,20.70513966,-156.1471962,5460,HALEAKALA NATL PK,No,0,State,Discontinued,2,1976,1977,no
260.00,Keawakapu,20.7168054,-156.4271824,370,HALEAKALA RANCH,Yes,8,State,Discontinued,579,1948,2006,no
260.10,Kamaole Height,20.70847282,-156.4405152,128,CW BRAM,No,0,State,Discontinued,95,1947,1955,no
260.20,Keawakapu Beach,20.69514055,-156.4438484,20,AL CORELL,Yes,12,State,Discontinued,364,1951,1982,no
261.00,Puu Loa,20.68014164,-156.4105163,1100,ULUPALAKUA RANCH,Yes,12,State,Discontinued,752,1927,1996,no
261.30,Twin Gates,20.75513527,-156.3771844,1310,KAONOULU RANCH,Yes,3,"NCDC, State, State/NCDC",Discontinued,315,1959,1986,no
262.00,Kamaole Pen,20.7001399,-156.3888507,1720,HALEAKALA RANCH,Yes,11,State,Current,661,1945,2008,no
263.00,Kamaole Ah Mee,20.69680683,-156.3838509,1980,HALEAKALA RANCH,Yes,12,State,Current,798,1936,2008,no
264.00,Waihou,20.66625383,-156.3671848,3600,ULUPALAKUA RANCH,Yes,12,State,Discontinued,721,1934,2001,no
264.10,Malie,20.67708628,-156.3905172,2160,ULUPALAKUA RANCH,No,0,State,Discontinued,325,1964,1996,no
265.00,Kamaole Mauka,20.7001398,-156.3638517,2690,HALEAKALA RANCH,Yes,12,State,Current,796,1936,2008,no
266.00,Kaupo Gap,20.68416667,-156.1519444,4030,RAWS,Yes,7,RAWS,Current,158,1991,2009,no
267.00,Kula Sanatorium,20.70013977,-156.3555187,3005,KULA SATORIUM,Yes,12,"NCDC, State, State/NCDC",Current,1092,1916,2007,no
267.10,Kula Cabin,20.68847406,-156.3355195,5240,BD OF A&F,No,0,State,Discontinued,97,1955,1964,no
267.20,Polipoli Spring,20.67847493,-156.3288532,6150,BD OF A&F,Yes,12,"NCDC, State, State/NCDC",Current,478,1955,2007,no
267.30,Kula House,20.73013712,-156.3355196,3090,HF RICE,Yes,11,State,Discontinued,308,1959,1985,no
267.40,Kaonoulu,20.73291466,-156.333853,3150,COOKE CM III,No,0,State,Discontinued,262,1960,1982,no
276.00,Big Bog,20.72655556,-156.09225,5396,HaleNet,Yes,12,HaleNet,Current,147,1993,2008,no
277.00,Horseshoe Pu'u,20.73630556,-156.1071389,6344,HaleNet,No,0,HaleNet,Discontinued,41,1992,1996,no
278.00,Treeline,20.73422222,-156.1228889,7200,HaleNet,Yes,12,HaleNet,Current,150,1992,2009,no
279.00,Pohaku Palaha,20.73061111,-156.1413056,8069,HaleNet,Yes,12,HaleNet,Current,151,1992,2009,no
280.00,HAHALAWE,20.67680986,-156.043868,885,USGS,No,0,State,Discontinued,282,1930,1965,no
281.00,Hanahuli,20.68847527,-156.017203,380,G BUTLER,Yes,12,"NCDC, State/NCDC",Discontinued,339,1947,1976,no
282.00,Hamoa,20.71180528,-156.0010931,105,HAROLD ASHWORTH,No,0,State,Discontinued,214,1895,1949,no
296.00,Olowalu-P Mill,20.80877472,-156.6231608,5,PIONEER MILL,Yes,8,State,Discontinued,734,1916,1977,no
296.10,Olowalu,20.81179866,-156.618842,25,PIONEER MILL,Yes,12,"NCDC, State, State/NCDC",Current,1088,1916,2007,no
296.20,Olowalu,20.81013222,-156.6221752,15,A HANEBURG,No,0,State,Discontinued,104,1891,1899,no
297.00,Olowalu Stream,20.82005556,-156.6181111,130,USGS,Yes,8,"State, USGS",Current,528,1964,2009,no
301.00,Ukumehame,20.8034657,-156.5871762,75,PIONEER MILL,Yes,12,"NCDC, State, State/NCDC",Discontinued,826,1929,1999,no
307.00,Reservoir 9,20.81846461,-156.5138451,300,WAILUKU SUGAR,Yes,12,State,Discontinued,452,1915,1953,no
307.10,Puuhele,20.80179921,-156.5071788,90,WAILUKU SUGAR,No,0,State,Discontinued,72,1916,1922,no
307.20,Pohakea Bridge,20.81346495,-156.5071786,165,WAILUKU SUGAR,Yes,11,"NCDC, State/NCDC",Current,653,1953,2007,no
310.00,Field 906 Vil 7,20.81179831,-156.4955123,85,HC&S,Yes,12,State,Discontinued,802,1910,1982,no
310.30,Res 91-Fld 906,20.81902002,-156.501901,162,HC&S,No,0,State,Discontinued,57,1971,1975,no
311.00,Kihei,20.78513334,-156.4505143,85,HC&S,Yes,12,"NCDC, State, State/NCDC",Current,1016,1903,2007,no
311.10,Field 908,20.80179877,-156.4671802,20,HC&S,Yes,12,State,Discontinued,373,1951,1982,no
311.30,Kulanihakoi Gul,20.765135,-156.4480146,35,USGS,Yes,7,"State, USGS",Discontinued,495,1963,2005,no
311.40,Kihei,20.7634685,-156.4516256,22,HC&S,No,0,State,Discontinued,125,1960,1970,no
311.50,Kihei No. 2*,20.73,-156.44,75,Hydronet,Yes,9,Hydronet,Current,187,1992,2008,no
312.00,Puunene Airport,20.82846304,-156.4588468,130,FAA,No,0,State,Discontinued,142,1947,1958,no
312.10,Res 90 Ap Vil,20.821849,-156.456012,125,HC&S,Yes,12,State,Discontinued,398,1949,1982,no
313.00,Field 811 Vil 3 (Camp K3),20.81013099,-156.5871762,270,HC&S,Yes,12,"NCDC, State, State/NCDC",Discontinued,722,1922,1982,no
313.20,Field 710,20.81790806,-156.4305147,86,HC&S,No,0,State,Discontinued,144,1964,1975,no
314.00,Res 81,20.81679691,-156.4038492,530,HC&S,Yes,12,State,Discontinued,506,1940,1982,no
314.10,Field 412,20.79985392,-156.4080159,630,HC&S,No,0,State,Discontinued,185,1966,1982,no
315.00,Pulehu F406,20.82346302,-156.4055156,465,HC&S,Yes,11,"State, State/NCDC",Discontinued,686,1925,1982,no
316.00,Field 405,20.82346299,-156.3921829,665,HC&S,Yes,11,State,Discontinued,264,1940,1961,no
316.10,Field 506,20.83512872,-156.4021823,455,HC&S,Yes,12,State,Discontinued,344,1953,1982,no
317.00,Field 401,20.8134638,-156.3832945,825,HC&S,Yes,12,State,Discontinued,274,1940,1962,no
317.10,Field 408 Masi,20.81179728,-156.3871833,780,HSPA,No,0,State,Discontinued,156,1963,1975,no
317.20,Field 413,20.8129083,-156.3891276,777,HC&S,No,0,State,Discontinued,242,1962,1982,no
318.00,Waiakoa,20.77680013,-156.3755176,1125,HALEAKALA RANCH,Yes,9,State,Current,733,1937,2008,no
318.10,Field 150,20.77013394,-156.3621849,1540,MAUI PINE,No,0,State,Discontinued,12,1933,1935,no
320.00,Gage 22,20.82012971,-156.3288523,1850,LIBBY,No,0,State,Discontinued,165,1948,1962,no
320.10,Field 47,20.82679594,-156.3555177,1100,LIBBY,No,0,State,Discontinued,36,1934,1937,no
320.20,Gage 27,20.81679659,-156.3188527,2040,LIBBY,No,0,State,Discontinued,157,1949,1962,no
321.00,Puu Ka Kae,20.79179878,-156.3538517,1600,HALEAKALA RANCH,Yes,8,State,Current,602,1946,2008,no
321.10,Field 60,20.81346371,-156.3588511,1210,MAUI PINE,No,0,State,Discontinued,147,1933,1945,no
321.20,Field 58,20.80679748,-156.3371855,1860,MAUI PINE,No,0,State,Discontinued,47,1933,1936,no
321.30,Omaopio,20.80513101,-156.3505182,1550,HAWN PINE,No,0,State,Discontinued,5,1935,1935,no
321.40,Field 400,20.82068538,-156.3685728,990,HC&S,No,0,State,Discontinued,232,1962,1982,no
322.00,Erehwon Makai,20.77679997,-156.3455189,1840,HALEAKALA RANCH,Yes,7,State,Discontinued,390,1930,1963,no
322.10,Field 100,20.79179883,-156.3638513,1280,MAUI PINE,No,0,State,Discontinued,83,1933,1939,no
323.00,Garcia,20.78013291,-156.3255197,2490,HALEAKALA RANCH,Yes,6,State,Discontinued,586,1946,2002,no
323.10,Field W,20.79679822,-156.3255194,2300,MAUI PINE,No,0,State,Discontinued,152,1933,1945,no
323.20,Kula Heights,20.78513247,-156.3205198,2520,KEN WILEY,Yes,10,State,Discontinued,311,1951,1977,no
324.00,Erehwon Mauka,20.75346829,-156.3071874,3750,HALEAKALA RANCH,No,0,State,Discontinued,188,1948,1963,no
324.10,Kula,20.74346934,-156.3371862,2700,FG CORREA,No,0,State,Discontinued,72,1901,1907,no
324.20,Kula,20.7534683,-156.308854,3750,USDA FRUIT FLY LAB,No,0,State,Discontinued,81,1949,1956,no
324.30,Kula,20.74013616,-156.317187,3650,USDA FRUIT FLY LAB,No,0,State,Discontinued,1,1949,1949,no
324.40,Kula Korte,20.75485708,-156.3091317,3740,K KORTE,No,0,State,Discontinued,183,1957,1973,no
324.50,Kula Exp Sta,20.75763473,-156.3227423,3050,UH EXP STA,Yes,12,"NCDC, State, State/NCDC",Current,480,1967,2007,no
324.60,Kula Agricultural Experiment,20.75788889,-156.3200278,3165,HaleNet,No,0,HaleNet,Current,221,1989,2009,no
324.70,Kula Branch Stn*,20.76,-156.32,3050,Hydronet,No,0,Hydronet,Current,210,1991,2008,no
325.00,Field 291,20.8101305,-156.3271858,1960,MAUI PINE,Yes,11,State,Discontinued,848,1933,2004,no
325.10,Kalialinui,20.80679747,-156.3338523,1950,HALEAKALA RANCH,Yes,9,State,Current,598,1948,2008,no
325.20,Fld 298,20.81429686,-156.3324633,1840,MAUI PINE,Yes,8,State,Discontinued,404,1970,2004,no
326.00,Nolle Smith,20.76013442,-156.3105205,3440,MRS C NOLLESMITH,No,0,State,Discontinued,20,1948,1949,no
327.00,Field 290,20.80179774,-156.3138532,2620,MAUI PINE,Yes,12,State,Discontinued,799,1933,2004,no
327.10,Kula Camp,20.80513088,-156.3238528,2200,MAUI PINE,No,0,State,Discontinued,143,1927,1938,no
327.20,Tompkin-Kulakai,20.79568717,-156.3207974,2360,TOMPKIN G W,No,0,State,Discontinued,97,1973,1981,no
328.00,Kula Erehwon,20.75180173,-156.3038542,3850,M ISOBE,Yes,5,"NCDC, State, State/NCDC",Discontinued,760,1890,1953,no
328.20,Haleakala,20.75513454,-156.2771886,5500,USDA FRUIT FLY LAB,No,0,State,Discontinued,22,1952,1953,no
328.40,Pu'u Pahu,20.75763889,-156.2775,5395.6,HaleNet,Yes,12,HaleNet,Discontinued,155,1989,2003,no
329.00,Olinda Nursery,20.80179746,-156.2805211,3770,BD OF A&F,Yes,12,State,Discontinued,308,1937,1964,no
329.10,Olinda,20.80846362,-156.280521,3520,UH EXP STA,Yes,8,State,Discontinued,428,1931,1968,no
329.20,Olinda-Lindsay,20.80679707,-156.2791322,3580,JAMES LINDSAY,No,0,State,Discontinued,228,1976,1995,no
329.30,Olinda-Boyum,20.8134633,-156.2874651,3282,SEVATH BOYUM,No,0,State,Discontinued,247,1958,1983,no
330.00,Gomi,20.780708,-156.299674,3500,HALEAKALA RANCH,Yes,10,State,Current,966,1900,2008,no
330.20,Kula Lodge,20.77679969,-156.3071871,3210,FL JAMES,No,0,State,Discontinued,19,1958,1959,no
331.00,Mountain,20.78123,-156.257443,5500,HALEAKALA RANCH,Yes,3,State,Current,717,1946,2008,no
331.20,Mountain Paddock,20.77846577,-156.2588557,5500,UNKNOWN,No,0,State,Discontinued,73,1931,1937,no
332.00,Olinda,20.79679779,-156.2738548,4125,MAUI COUNTY DWS,Yes,6,"NCDC, State, State/NCDC",Current,964,1910,2007,no
333.00,Ukulele,20.79179801,-156.2521891,5230,HALEAKALA RANCH,Yes,12,"NCDC, State, State/NCDC",Current,1219,1904,2008,no
334.00,Olinda 2,20.80513035,-156.2571887,4210,MAUI COUNTY DWS,No,0,State,Discontinued,321,1948,1974,no
334.10,Olinda 3,20.82818424,-156.2719099,2920,MAUI COUNTY DWS,No,0,State,Discontinued,69,1968,1974,no
335.00,Intake,20.79179798,-156.2338568,5250,HALEAKALA RANCH,No,0,State,Discontinued,222,1934,1957,no
335.10,Haleakala Ranch,20.79679758,-156.2388565,4960,HALEAKALA RANCH,No,0,State,Discontinued,72,1934,1940,no
336.00,Waikamoi Dam,20.80679679,-156.2305233,4320,EMI,Yes,7,"NCDC, State, State/NCDC",Current,1138,1910,2007,no
336.10,Opana,20.81179642,-156.2421893,4175,EMI,No,0,State,Discontinued,9,1938,1942,no
338.00,Haleakala Ranger,20.75846738,-156.2455233,7030,HAWAII T PARK,Yes,12,"NCDC, State/NCDC",Current,826,1939,2007,no
338.10,Honomanu Gulch,20.75680091,-156.2255246,7550,EMI,No,0,State,Discontinued,53,1939,1943,no
338.20,Waikamoi,20.76846654,-156.230524,6725,BD OF A&F,No,0,State,Discontinued,170,1938,1964,no
338.30,Haleakala Ranch,20.71347155,-156.2505236,9750,USN,No,0,State,Discontinued,107,1935,1944,no
338.40,Satelite H'akala,20.70680551,-156.2555234,10025,SMITHSONIAN INST 1,No,0,State,Discontinued,188,1957,1975,no
338.50,Kole Kole,20.70680551,-156.2555234,10020,REBER GROTE      1,No,0,State,Discontinued,66,1952,1958,no
338.70,Haleakala,20.73513619,-156.2371909,9200,USDA FRUIT FLY LAB,No,0,State,Discontinued,16,1950,1951,no
339.40,Haleakala National Park Hq,20.75980556,-156.2481667,6954,HaleNet,No,0,HaleNet,Current,215,1989,2009,no
339.50,Nene Nest,20.73819444,-156.2458333,8495,HaleNet,Yes,12,HaleNet,Current,219,1990,2009,no
339.60,Summit,20.71036111,-156.25675,9807,HaleNet,Yes,12,HaleNet,Current,198,1990,2009,no
340.00,Waikamoi,20.78346532,-156.2271907,5760,HALEAKALA RANCH,No,0,State,Discontinued,222,1933,1957,no
341.00,Honomanu Gulch,20.7767992,-156.2238577,6150,HALEAKALA RANCH,Yes,12,"NCDC, State, State/NCDC",Discontinued,664,1933,2000,yes
341.10,Waikamoi Run1,20.77513264,-156.2305239,6350,BD OF A&F,No,0,State,Discontinued,97,1949,1957,no
341.20,Waikamoi Run2,20.76346699,-156.227191,7080,BD OF A&F,No,0,State,Discontinued,97,1949,1957,no
341.30,Waikamoi Run3,20.77346608,-156.2405233,6520,BD OF A&F,No,0,State,Discontinued,81,1951,1957,no
341.40,Waikamoi Run4,20.77846569,-156.2405232,6290,BD OF A&F,No,0,State,Discontinued,81,1951,1957,no
341.60,Puu Nianiau,20.77513261,-156.2405233,6400,UNKNOWN,No,0,State,Discontinued,75,1931,1937,no
341.70,Waikamoi,20.77358333,-156.2221944,6347,HaleNet,No,0,HaleNet,Discontinued,20,2001,2003,no
342.00,Puohakamoa,20.8034637,-156.2205239,4300,MAUI COUNTY WATER,No,0,State,Discontinued,552,1912,1975,no
343.00,Puohakamoa 2,20.82679503,-156.2121905,2980,EMI,Yes,12,"NCDC, State, State/NCDC",Current,907,1919,2007,yes
343.10,Middle Branch,20.82512849,-156.2110795,2900,USGS,No,0,State,Discontinued,42,1965,1969,no
344.00,West Honomanu,20.8201289,-156.2088575,3000,EMI,Yes,12,"NCDC, State, State/NCDC",Discontinued,426,1923,1961,no
344.20,Fld 413 Masi,20.82123992,-156.209413,777,HSPA,No,0,State,Discontinued,24,1962,1963,no
345.00,East Honomanu,20.81179616,-156.1971916,3200,EMI,No,0,State,Discontinued,125,1950,1961,no
346.00,Keanae,20.82679408,-156.1638595,970,EMI,Yes,11,"NCDC, State, State/NCDC",Current,1094,1904,2007,yes
346.10,Keanae Valley,20.81846196,-156.1805255,1960,EMI,No,0,State,Discontinued,9,1938,1943,no
348.00,Wailua Iki 6,20.7934639,-156.1505278,2630,EMI,No,0,State,Discontinued,124,1937,1975,no
348.10,Wailua Iki 7,20.79179739,-156.1505279,2660,EMI,No,0,State,Discontinued,44,1949,1960,no
348.20,Wailua Iki 5,20.8051292,-156.1421946,2000,EMI,No,0,State,Discontinued,134,1949,1983,no
348.30,Wailua Iki 8,20.81179506,-156.1388612,1650,EMI,No,0,State,Discontinued,92,1960,1983,no
348.50,West Wailuaiki,20.81769444,-156.1410278,1343,USGS,No,0,USGS,Current,74,2002,2009,no
350.00,Paakea,20.81179461,-156.1171956,1280,EMI,Yes,12,"NCDC, State, State/NCDC",Current,1106,1904,2007,no
350.10,Nahiku,20.81179439,-156.0938637,740,NAHIKU RUBBER,No,0,State,Discontinued,193,1900,1916,no
350.20,Nahiku Mauka,20.79346351,-156.0971973,1600,WF POGUE,No,0,State,Discontinued,62,1902,1907,no
350.30,Nahiku,20.8234593,-156.0905301,120,RH WOERALL,No,0,State,Discontinued,40,1898,1901,no
351.00,Kuhiwa Gulch,20.77679871,-156.1105303,2760,EMI,Yes,12,State,Discontinued,161,1933,1948,no
352.00,Puu Paki 352,20.771,-156.046,1932,EMI,No,0,State,Discontinued,84,1949,1975,no
352.10,Honomaele Mauka,20.76179949,-156.0538669,2500,KAELEKU SUGAR,Yes,10,State,Discontinued,103,1937,1945,no
352.20,Mokulehua,20.79346279,-156.0555327,660,BD OF A&F,No,0,State,Discontinued,78,1937,1951,no
353.00,Hana Airport*,20.79,-156.02,62,Hydronet,No,0,Hydronet,Current,199,1991,2008,no
354.00,Hana,20.74957743,-155.9872048,130,HA RANCH,Yes,12,"NCDC, State/NCDC",Discontinued,804,1907,1978,no
354.10,Hana Mauka,20.75180013,-156.0238688,1720,KAELEKU SUGAR,Yes,12,State,Discontinued,103,1937,1945,no
354.20,Hana Plantation,20.73846802,-155.9888716,200,KS GJERDRUM,No,0,State,Discontinued,48,1894,1897,no
354.30,Hana Iuka,20.73846852,-156.0172028,1800,KS GJERDRUM,No,0,State,Discontinued,42,1894,1897,no
355.00,Hana Airport,20.79346093,-156.0138684,60,HAWN AIRLINES,Yes,12,"NCDC, State, State/NCDC",Discontinued,655,1950,2005,no
355.10,Kealeku,20.78346257,-156.0222012,300,KAELEKU SUGAR,Yes,12,State,Discontinued,222,1927,1945,no
360.00,Field I-3,20.90679252,-156.6788398,200,PIONEER MILL,Yes,12,State,Discontinued,571,1933,1981,no
361.00,Lahaina,20.87679494,-156.6738405,45,PIONEER MILL,Yes,2,"NCDC, State/NCDC",Discontinued,1048,1913,2001,no
361.10,Lahainaluna*,20.89,-156.66,555,Hydronet,No,0,Hydronet,Current,202,1991,2008,no
361.20,Kahoma Stream,20.88262771,-156.6738404,90,USGS,Yes,11,State,Discontinued,297,1963,1987,no
362.00,Frank Lua,20.87012822,-156.6666182,75,PIONEER MILL,Yes,10,State,Discontinued,340,1939,1968,no
363.00,Field F-1,20.91012466,-156.6588399,900,PIONEER MILL,Yes,9,State,Discontinued,573,1933,1981,no
364.00,Wahikuli,20.89679257,-156.6621736,580,PIONEER MILL,Yes,12,"NCDC, State, State/NCDC",Discontinued,1053,1912,2001,no
365.00,Field MD-1,20.86012915,-156.662174,75,PIONEER MILL,Yes,12,State,Discontinued,477,1941,1981,no
365.10,Field MC 1,20.86179494,-156.6555072,275,PIONEER MILL,Yes,8,State,Discontinued,241,1941,1964,no
365.20,Field MA-1,20.86346063,-156.6438405,650,PIONEER MILL,Yes,12,State,Discontinued,435,1941,1981,no
366.00,Field LB-2,20.881996,-156.656526,570,PIONEER MILL,Yes,12,State,Discontinued,486,1927,1968,no
367.00,Joe Lua,20.87179411,-156.6588404,275,PIONEER MILL,Yes,12,State,Discontinued,398,1931,1964,no
370.00,Field E-1,20.90679158,-156.6518957,1280,PIONEER MILL,Yes,12,State,Discontinued,480,1941,1981,no
371.00,Field LB-7,20.87012701,-156.650507,525,PIONEER MILL,Yes,12,State,Discontinued,442,1931,1968,no
372.00,Launiupoko Vill,20.85179493,-156.6455071,250,PIONEER MILL,Yes,10,"NCDC, State, State/NCDC",Current,1012,1918,2007,no
372.10,Field MC-7,20.846536,-156.649414,100,PIONEER MILL,Yes,12,State,Discontinued,452,1927,1968,no
373.00,Field LA-5,20.87845968,-156.6455071,975,PIONEER MILL,Yes,10,State,Discontinued,640,1927,1981,no
374.00,Kahoma Intake,20.901204,-156.623574,2000,PIONEER MILL,Yes,12,"NCDC, State, State/NCDC",Current,1036,1910,2007,no
375.00,Kauaula Intake,20.87679294,-156.6221744,1580,PIONEER MILL,Yes,8,"NCDC, State, State/NCDC",Current,934,1919,2007,no
376.00,Launiupoko Int,20.854119,-156.617207,1280,PIONEER MILL,Yes,12,"NCDC, State, State/NCDC",Current,985,1913,2007,yes
377.00,Olowalu Gulch,20.840639,-156.593579,760,PIONEER MILL,Yes,12,"NCDC, State, State/NCDC",Discontinued,719,1912,1972,no
378.00,Power House 2,20.87345987,-156.6405072,1000,PIONEER MILL,Yes,11,State,Discontinued,647,1919,1978,no
380.00,Kukui,20.89083333,-156.5863889,5771,BALDWIN PKRS,Yes,12,USGS,Current,781,1928,2009,no
386.00,Wailuku Office,20.89345755,-156.4971782,180,WAILUKU SUGAR,Yes,12,"NCDC, State, State/NCDC",Discontinued,1367,1887,2002,no
386.10,Wailuku,20.88345869,-156.507178,390,WAILUKU SUGAR,Yes,1,State,Discontinued,266,1896,1918,no
386.20,Wailuku Alex,20.88345861,-156.5021781,250,WP ALEXANDER,No,0,State,Discontinued,60,1879,1883,no
386.40,Happy Valley,20.89290221,-156.5057891,300,WILLIAM COPE,No,0,State,Discontinued,19,1968,1969,no
386.50,Field 37,20.90290154,-156.5118999,440,WAILUKU SUGAR,No,0,State,Discontinued,308,1968,1994,no
386.60,Wailuku AHOS*,20.88,-156.51,482,Hydronet,No,0,Hydronet,Current,194,1991,2008,no
387.00,Hopoi Reservoir,20.87679263,-156.5055114,380,WAILUKU SUGAR,Yes,12,State,Discontinued,695,1933,1990,no
387.10,Iao Valley,20.88345908,-156.5355103,720,WAILUKU SUGAR,Yes,12,State,Discontinued,536,1949,1994,no
387.20,Iao Needle,20.88012615,-156.5471767,1250,US CORPS OF ENGR,Yes,9,State,Discontinued,230,1949,1977,no
390.00,Waikapu Village,20.847391,-156.505848,470,WAILUKU SUGAR,Yes,10,"NCDC, State, State/NCDC",Discontinued,1110,1895,1994,no
390.10,Reservoir 1,20.85179517,-156.5238444,1100,WAILUKU SUGAR,Yes,12,State,Discontinued,537,1949,1994,no
390.20,Wailuku-Everett,20.85512809,-156.5105114,250,EVERETT TW,No,0,State,Discontinued,90,1887,1894,no
390.40,Waikapu Country Club*,20.83,-156.51,479,Hydronet,No,0,Hydronet,Current,186,1993,2008,no
391.00,Hayashi,20.83703,-156.5059,340,WAILUKU SUGAR,Yes,12,State,Discontinued,748,1932,1994,no
392.00,Wailuku,20.89179104,-156.4971783,200,WAILUKU BOYS SCHOOL,No,0,State,Discontinued,807,1901,1969,no
393.00,Field 719,20.84679501,-156.4755125,150,HC&S,Yes,12,State,Discontinued,473,1931,1982,no
393.10,Herbicide Plant,20.85346087,-156.4555132,100,HC&S,Yes,12,State,Discontinued,379,1950,1982,no
394.00,Vil 6,20.83512925,-156.4688463,105,HC&S,Yes,11,State,Discontinued,628,1929,1982,no
395.00,Dairy,20.8851249,-156.4571797,20,HC&S,Yes,10,State,Discontinued,341,1933,1961,no
395.10,Kahului,20.891791,-156.4638461,10,KAHULUI RR COMPANY,Yes,7,State,Discontinued,299,1892,1924,no
396.00,Puunene,20.8717927,-156.4538466,60,HC&S,Yes,12,"NCDC, State/NCDC",Current,1256,1901,2007,no
396.10,Puunene Mill,20.86651534,-156.4524578,80,HC&S,No,0,State,Discontinued,218,1964,1982,no
397.00,Field 606,20.8684595,-156.4305141,145,HC&S,Yes,11,State,Discontinued,516,1927,1971,no
397.20,Field 710,20.8731814,-156.4382916,89,HC&S,No,0,State,Discontinued,214,1964,1981,no
398.00,Kahului Ap*,20.88,-156.43,40,NOAA-NWS,Yes,12,"Hydronet, Hydronet/NCDC, NCDC, State, State/NCDC",Current,862,1905,2008,no
398.10,Kahului Nursery,20.89012444,-156.4455134,20,BD OF A-F,No,0,State,Discontinued,130,1953,1964,no
400.00,Spreckelsville,20.897526,-156.41427,65,HC&S,Yes,12,"NCDC, State, State/NCDC",Current,1375,1883,2007,no
400.10,Cent'l Pow Plt,20.8867914,-156.4471801,20,HC&S,No,0,State,Discontinued,76,1931,1937,no
400.20,Field 607,20.89540151,-156.4088482,85,HC&S,No,0,State,Discontinued,319,1960,1986,no
401.00,Vil 13,20.83846178,-156.4121818,385,HC&S,Yes,12,State,Discontinued,487,1931,1982,no
401.10,Field 809,20.83346229,-156.4305144,275,HC&S,Yes,12,State,Discontinued,392,1949,1982,no
402.00,"Vil 10 (Field 510, Camp 10)",20.85846021,-156.4038486,355,HC&S,Yes,12,"NCDC, State, State/NCDC",Discontinued,722,1922,1982,no
403.00,Field 611,20.898566,-156.394039,140,HC&S,Yes,12,State,Discontinued,540,1935,1982,no
404.00,Field 508,20.87512547,-156.3871825,360,HC&S,Yes,11,State,Discontinued,658,1927,1982,no
404.10,Field 603,20.87512555,-156.405515,205,HC&S,Yes,12,State,Discontinued,373,1951,1982,no
404.20,Upper Village 3,20.88345817,-156.4171812,115,HC&S,No,0,State,Discontinued,132,1949,1960,no
405.00,Field 212,20.90345576,-156.3805157,120,HC&S,Yes,12,State,Discontinued,504,1940,1982,no
406.00,Paia,20.9051221,-156.3738494,165,HC&S,Yes,12,"NCDC, State, State/NCDC",Current,1316,1894,2007,no
406.20,Maui Pine,20.91151013,-156.3760714,80,HC&S,No,0,State,Discontinued,36,1983,1989,no
407.00,Field 209,20.8801249,-156.3738496,400,HC&S,Yes,11,State,Discontinued,429,1946,1982,no
410.00,Keahua,20.85846016,-156.3805162,395,HC&S,Yes,12,"NCDC, State/NCDC",Current,1080,1908,2007,no
411.00,Field 311,20.84512788,-156.3771832,655,HC&S,Yes,12,State,Discontinued,506,1940,1982,no
412.00,Gage 24,20.83512865,-156.3666282,850,LIBBY,No,0,State,Discontinued,118,1947,1957,no
